area,item_code,target2_code,addr2,lng,addr1,open_info,target2_etc,type,close_info,zipcode,img_name,name,target1_code,target1_etc,idx,item_etc,lat,제공대상,제공인원,제공품목
서울,99,,"1층 (논현동, 두원빌딩) 더 수제비",127.032748388739,"서울 강남구 논현로132길 29","11시~8시 (평일),  11시~6시 (토)",,01,일요일,06053,c5ab989ad40d4f7ba804b68ae7449d3a.jpg,"삼청골명가 더수제비 ",02,,348,"수제비, 들깨수제비,들깨감자옹심이,감",37.5155564146922,Nan,"동반 1인","수제비, 들깨수제비,들깨감자옹심이,감"
서울,02,"01,02","지하 1층",127.059383424452,"서울 강남구 대치동 1016-4","오후1시 - 오후 10시",,02,"일요일 휴무",06279,7f956996ed404dd888f5102b267fe245.jpg,"87.5 탭댄스 컴퍼니",02,,393,,37.4975141236791,"결식아동,독거노인","동반 1인",
서울,,,남자빌딩3층,127.041067594119,"서울 강남구 도곡로 203",,,03,,06231,NULL,피트니스플랜비,,,748,,37.4927790108557,Nan,Nan,
서울,02,01,"아가도스빌딩 1층 바바에스 대치점",127.059558169501,"서울 강남구 도곡로 449","10:00 ~21:00",,03,,06209,NULL,바바에스안경원(대치점),01,,729,,37.4988301355807,결식아동,"아이 본인만",
서울,99,"01,02",,127.040892026487,"서울 강남구 선릉로111길 33",9~19,,02,없음,06103,afb257251b1244c4ae21e3a8b2272213.jpeg,한국전문연주자협회,03,,872,티켓,37.5100709056876,"결식아동,독거노인","동반 2인",티켓
서울,01,"01,02",101,127.043912415042,"서울 강남구 언주로69길 16",10~21,,01,연중무휴,06226,dc68812e49754702b668c0b61171173c.jpg,우리카페,02,,454,,37.4964253536579,"결식아동,독거노인","동반 1인",
서울,,,3층,127.034897822252,"서울 강남구 테헤란로 143",,,99,,06132,NULL,메이머스트,,,925,,37.500619211163,Nan,Nan,
서울,99,,"다른타워 8층 법률사무소 서화담",127.039650741179,"서울 강남구 학동로 335","09시 ~ 18시",,99,"토요일, 일요일, 관공서 공휴일 등",06060,NULL,"법률사무소 서화담",01,,64,급식카드소지학생대상법률서비스,37.5169881563922,Nan,"아이 본인만",급식카드소지학생대상법률서비스
서울,99,"01,02,99","102-2호 통닭&강동생족발보쌈",127.168780176356,"서울 강동구 고덕로 390",점심12시~밤12시,"소방관은 전메뉴 50%할인",01,"연중무휴 , 포장 배달 전문점",05274,cf423ae9061341bdad4f5031b168a4d4.jpg,통닭&강동생족발보쌈,99,"포장 배달 전문점입니다.",624,아동=통닭1마리무료&전메뉴50%할인,37.5566264093618,"결식아동,독거노인,소방관은 전메뉴 50%할인","포장 배달 전문점입니다.",아동=통닭1마리무료&전메뉴50%할인
서울,99,01,203호,127.163703763594,"서울 강동구 동남로82길 120",10-20,,03,"공휴일 일요일",05224,bc173fd2a34149a3850d85a3ca8dbc70.jpeg,벨라로그,01,,833,주니어컷,37.5600131037078,결식아동,"아이 본인만",주니어컷
서울,01,"01,02","2층 암사비치푸드마켓",127.12620474698,"서울 강동구 상암로 24","pm 4::30 ~ PM 12:00",,01,없음,05242,NULL,암사비치푸드마켓,03,,512,,37.5505214571878,"결식아동,독거노인","동반 2인",
서울,02,01,"1층 101호(성내동)",127.121714791038,"서울 강동구 성내로 7","09:00 ~ 21:00",,01,"1, 3주 일요일",05392,2fad6b7e0ab54666b65b8e130cccf62e.jpg,미미고찹쌀꽈배기강동구청점,02,,978,,37.5306211120485,결식아동,"동반 1인",
서울,01,01,"1층 103호 엥겔커피",127.130319582447,"서울 강동구 성안로 39",12:00-24:00,,01,"매주 수요일",05396,NULL,엥겔플랜트,02,,330,,37.527383733568,결식아동,"동반 1인",
서울,01,01,"105호 식사준비",127.174497989376,"서울 강동구 아리수로93나길 50",10:00~20:00,,01,없음,05415,7a3e969675c24fceba5d7edbe1510e68.png,"식사준비 강일점",01,,123,,37.5720997177008,결식아동,"아이 본인만",
서울,02,01,신참떡볶이,127.142054351358,"서울 강동구 양재대로 1549","10시30분~22시 30분",,01,없음,05315,NULL,"신참떡볶이 굽은다리역점",02,,596,,37.5440484317022,결식아동,"동반 1인",
서울,99,01,"라라브레드 1층",127.141220445342,"서울 강동구 양재대로116길 13","11:00 ~ 20:00",,01,x,05343,NULL,라라브레드,01,,654,"직원선택 빵2종",37.5386777654734,결식아동,"아이 본인만","직원선택 빵2종"
서울,,,,127.132107671568,"서울 강동구 진황도로29길 8",,,99,,05337,NULL,청춘집합소,,,270,,37.5385119859067,Nan,Nan,
서울,02,01,"b114 미화동",127.133115595362,"서울 강동구 천호대로 1089",10시30분~20시,,01,15-17시,05339,7b57cff0eea441e3bcda1ceb05171170.png,미화동,01,,519,,37.5366048791746,결식아동,"아이 본인만",
서울,01,"01,02",1층,127.14899761506,"서울 강동구 천호대로 1240-13",10:00~8:00,,02,금요일,05359,6747d5cf1fb34004a8af1963dbee0ebc.jpg,허브문화예술창작소,01,,1045,,37.5358651089613,"결식아동,독거노인","아이 본인만",
서울,99,01,"동아빌딩 2층",127.022452181913,"서울 강북구 노해로 41",17시~02시,,01,"월,화요일  17~18시  식사제공가능",01077,c11ace05a0cf422983dd803a6ef41891.jpg,아이엠,01,,204,"파스타 메뉴",37.6393058776416,결식아동,"아이 본인만","파스타 메뉴"
서울,,"01,99",1층,127.026641902994,"서울 강북구 덕릉로 115",,"입양보류아동,무연고아동",01,,01069,NULL,인생푸드,,,844,,37.6351365082522,"결식아동,입양보류아동,무연고아동",Nan,
서울,01,"01,02","B2 송탄영빈루",127.030517678336,"서울 강북구 도봉로 62",10:30~19:30,,01,,01215,71f6fa046fcf49838ba2ec4c54fe4cf3.jpg,"롯데백화점 미아점 송탄영빈루 ",01,,175,,37.6145929759749,"결식아동,독거노인","아이 본인만",
서울,99,01,1층,127.0168280634,"서울 강북구 삼양로93길 3",,,01,,01087,NULL,"땅땅치킨 수유점",01,,940,"1인식사제공(서울회관) 스몰치킨제공",37.6373055460892,결식아동,"아이 본인만","1인식사제공(서울회관) 스몰치킨제공"
서울,01,"01,02","진영빌딩 1층 달리는커피",127.016648114846,"서울 강북구 솔샘로 216","평일 10시~20시 /토요일 10시~18시",,01,"매주 일요일 휴무",01193,51f2ae71e02f4bd3902ae72c2fe44a7a.jpeg,"달리는커피 서울 삼각산점",01,,1042,,37.6198929274703,"결식아동,독거노인","아이 본인만",
서울,01,"01,02","2층 작심스터디카페 발산점",126.83730333193,"서울 강서구 강서로 324",24시간,,02,"365일 영업",07680,478a824727114b6484272f3a0e33dcaa.png,"작심스터디카페 발산점",01,,792,,37.554590947838,"결식아동,독거노인","아이 본인만",
서울,99,01,지하1층,126.840498784915,"서울 강서구 강서로56길 17",매일10:30~20:30,,01,없음,07584,5f0111fc3a8344878c626521a0223ecb.jpg,마라홀릭,01,,199,마라탕,37.559933531546,결식아동,"아이 본인만",마라탕
서울,02,01,"야채가게 ",126.846764855624,"서울 강서구 곰달래로25길 65-27",09시-20시까지,,99,없음,07756,6ba053ca33c149f083d38290f7d86c6e.jpg,우리상회,02,,483,,37.5329700893004,결식아동,"동반 1인",
서울,99,"01,02","류마타워 1층 111호 엘로이카페",126.825514827621,"서울 강서구 공항대로 164",08:00~19:00,,01,"2주 4주 일요일",07807,09259e6692f040c190b505b51fb33965.jpg,엘로이카페,02,,891,"카드 제시 할 시 1인당 음료 한잔",37.5593259702511,"결식아동,독거노인","동반 1인","카드 제시 할 시 1인당 음료 한잔"
서울,01,01,"2층 212호 양평해장국",126.834327579685,"서울 강서구 공항대로 242","매일 09 : 00 ~ 21 : 00",,01,"휴무시간 업음, 휴무일 설, 추석 연휴 ",07805,a73f0a82b961448ba0a5f068bfc1d3b7.png,"양평해장국 강서마곡점",99,"동반자 모두",31,,37.5584801960397,결식아동,"동반자 모두",
서울,99,"01,02",,126.864267295287,"서울 강서구 공항대로59가길 7","예약제로 운영",,02,,07563,909655424fe745099b84d69de959eea0.png,"심리상담연구소 문",99,"아동 및 가족",776,"심리상담 심리평가 등 심리상담서비스",37.5521844920922,"결식아동,독거노인","아동 및 가족","심리상담 심리평가 등 심리상담서비스"
서울,01,"01,02","101동 앞 상가 개러지키친 7호",126.847028675022,"서울 강서구 등촌동 701",16:30~02:00,,01,x,07587,68070fbccaee45acb619659570ec3fb3.jpg,연어꽃,01,,731,,37.559838467768,"결식아동,독거노인","아이 본인만",
서울,99,01,"2층 223,4호",126.827466061572,"서울 강서구 마곡동 760-2","10:30 - 20:30",,03,"1월1일, 명절당일휴무",07788,NULL,샵일구구공,01,,545,"컷트 무료",37.5678542358386,결식아동,"아이 본인만","컷트 무료"
서울,99,"01,02","B동 221호",126.825645363269,"서울 강서구 마곡서로 152",17:00~00:00,,01,"매주 월요일 & 매달 마지막 주의 일요일",07788,f274963b783743a19399346928d81184.jpg,EXPER2,99,"4명까지 가능",717,"당일날 제일 맛있는 메뉴들로 제공!",37.5677107355183,"결식아동,독거노인","4명까지 가능","당일날 제일 맛있는 메뉴들로 제공!"
서울,01,"01,02",,126.825645363269,"서울 강서구 마곡서로 152",,,03,,07788,NULL,"아트포유 셀프사진관",02,,923,,37.5677107355183,"결식아동,독거노인","동반 1인",
서울,01,01,"103호 순흑네",126.825637723392,"서울 강서구 마곡중앙로 59-9",07~20시까지,,01,"일요일 휴무",07807,e7505477c05e44c9a38a6be76c6307da.png,"순희네 꼬마김밥",01,,553,,37.5588474526291,결식아동,"아이 본인만",
서울,99,02,"2층 "금수저"",126.83790949064,"서울 강서구 양천로47길 24","월-금/11:00~20:00 토/11:00~15:00",,01,"매주 일요일 휴무",07522,93cf93cb8d9b44f58af5d508a5b52ef2.png,금수저,03,,648,"백숙을 제외한 전메뉴 (1인 1메뉴)",37.571512748194,독거노인,"동반 2인","백숙을 제외한 전메뉴 (1인 1메뉴)"
서울,02,01,"1층 샌드위치만드는언니",126.839432281354,"서울 강서구 월정로30길 64","월-토 10시~9시",,01,"매주 일요일",07767,a11cd095b3aa4331b5acadf40ac27bf2.jpg,샌드위치만드는언니,01,,409,,37.5348782159865,결식아동,"아이 본인만",
서울,02,01,1층정육점,126.844926152646,"서울 강서구 화곡동 348-4","09-30  22:00",,99,없음,07770,a00e830f04494c50b8121d015cb29bc3.jpg,청춘푸줏간,01,,366,,37.5330070629047,결식아동,"아이 본인만",
서울,,,2f,126.856802264958,"서울 강서구 화곡동 822-20",non,,99,non,07738,NULL,(주)지니글로벌네트웍스,,,23,,37.5344331168718,Nan,Nan,
서울,99,01,"1층 컴포즈커피",126.849702897388,"서울 강서구 화곡로 313",08:00~23:00,,01,없음,07686,d388176af7db4ace801c1f56a2ddb110.jpg,"컴포즈커피 강서구청점",99,"아이 본인 직접 방문",117,"원하는 음료 한잔",37.5522837108672,결식아동,"아이 본인 직접 방문","원하는 음료 한잔"
서울,02,01,"그랜드아이파크 1층/2층",126.85129237152,"서울 강서구 화곡로 347",오전08:00~오후11:00,,01,연중무휴,07649,b7511b8423534f0195de65e7d8c80470.png,투썸플레이스강서구청점,01,,62,,37.5548351849155,결식아동,"아이 본인만",
서울,99,01,"이루는교회 2층 카핏",126.956299965025,"서울 관악구 관악로 234","오전10시 ~ 오후7시",,01,일요일.공휴일,08737,b591a418317640c49e7ffc7fd91bfb78.jpg,카핏,01,,290,"음료1. 디저트1",37.4849602023242,결식아동,"아이 본인만","음료1. 디저트1"
서울,01,"01,02","모두의주방 지하1층 3호",126.956789333907,"서울 관악구 관악로 251","오전9시~익일 오전12시",,01,,08727,NULL,까사피에스타,02,,676,,37.4868970093613,"결식아동,독거노인","동반 1인",
서울,01,01,"1층 부타앤카츠",126.922869808867,"서울 관악구 난곡로34길 70","오전 9시30분 ~ 오후11시",,01,연중무휴,08854,cd1f155fd8b9401b95ecdab00d125f2a.jpeg,부타앤카츠,99,"사장 맘대루",718,,37.4719762339743,결식아동,"사장 맘대루",
서울,02,01,"1층 피자헛",126.918275457904,"서울 관악구 남부순환로 1508",10:30~22:30,,99,,08772,NULL,피자헛난곡2호점,01,,446,,37.4822481666579,결식아동,"아이 본인만",
서울,02,01,"1층 커피플래닛",126.918275457904,"서울 관악구 남부순환로 1508","월-토 7:00-23:00  일9:00-23:00",,01,,08772,NULL,커피플래닛,02,,738,,37.4822481666579,결식아동,"동반 1인",
서울,01,"01,02","지하 1층 13호",126.960689887727,"서울 관악구 남부순환로 1904",11시~10,,01,없음,08792,0c28f05534e04c0a865da8a6d47b9423.jpg,하루하나,02,,855,,37.477865578487,"결식아동,독거노인","동반 1인",
서울,99,01,"5층 티나에스테틱 ",126.977698378432,"서울 관악구 남현길 7",11시~10시,,99,"일요일 공휴일",08806,c9af89d43c184c9f83c961162d90f479.jpg,"티나에스테틱 ",01,,862,두피케어,37.4760684441838,결식아동,"아이 본인만",두피케어
서울,01,"01,02",지하1층,126.938242258684,"서울 관악구 대학5길 8",오후2시-오후10시,,99,"목요일, 일요일 ",08814,9f4602055d4e4ef29075cf2e7409f6f0.jpg,위드짐,01,,143,,37.4691758274797,"결식아동,독거노인","아이 본인만",
서울,01,"01,02","1층 커피정류장",126.938505064613,"서울 관악구 복은길 46",9시~9시,,01,"매주 월요일 휴무",08834,5f7f81eb8d954e50a98bdbbb82b34dff.jpg,커피정류장,01,,263,,37.4744430905482,"결식아동,독거노인","아이 본인만",
서울,01,01,"2층 오후의과일",126.953487329443,"서울 관악구 봉천동 1599-4",11~22,,01,"매주화요일(주말토,일은제외)",08788,d2577cc8b8b44d20a783220e01b691ff.jpg,오후의과일,02,,793,,37.4792776374547,결식아동,"동반 1인",
서울,02,"01,02","1층 Dal.lem",126.948072106992,"서울 관악구 봉천동 464-25","화-토 오후2시~오후10시",,01,,08729,746bdc6e0af54d4484779117f641cf54.jpg,달렘,01,,173,,37.4872139881139,"결식아동,독거노인","아이 본인만",
서울,99,,"1층 피자나라치킨공주",126.94784235524,"서울 관악구 봉천동 892-2",12~24시,,01,"매주 화요일",08748,NULL,피자나라치킨공주,01,,514,피치세트,37.4831376352842,Nan,"아이 본인만",피치세트
서울,99,01,"제1싱가동 104호 백년카츠",126.943250339993,"서울 관악구 봉천로 391","11시 ~ 21시",,01,3시~4시,08750,fcff53e57c6842f8ab0bfe2ec2287b72.png,"백년카츠 관악점",01,,536,"개별메뉴 전부(세트,정식 제외)",37.4834714149035,결식아동,"아이 본인만","개별메뉴 전부(세트,정식 제외)"
서울,99,01,"1층 한우육회마을2호점 ",126.9557439095,"서울 관악구 봉천로 520-1",오후6시~9시,,01,일요일휴무,08789,NULL,"한우육회마을2호점 ",02,,1034,육회비빔밥,37.4793880669445,결식아동,"동반 1인",육회비빔밥
서울,01,"01,99","1층 cu편의점 옆",126.935228480342,"서울 관악구 신림동 1741",24시간,소개추천,01,없음,08780,cd3f884895954b2b84cb13430bb6fcac.png,바다가내손아귀,99,가족포함,753,,37.4827239574967,"결식아동,소개추천",가족포함,
서울,01,"01,02","101호  별꿈다락",126.940355235869,"서울 관악구 장군봉1길 3",12:00~22:00,,01,"정기휴일 없음",08784,464d8ac13d514f858f27918c9a483daf.jpg,"별꿈다락 ",01,,770,,37.4822954340398,"결식아동,독거노인","아이 본인만",
서울,01,01,"1층 백가집",126.933912302835,"서울 관악구 호암로24길 11","오전 11시 ~ 오후 8시",,01,"매주 토요일",08812,NULL,백가집,01,,584,,37.4700189935324,결식아동,"아이 본인만",
서울,01,01,"3층 초심스터디카페 구의점",127.093846129808,"서울 광진구 광나루로 588",24시간,,02,없음,05033,e85a29f3090f4e7db2a25c5de1d112bb.jpeg,"초심스터디카페 구의점",01,,327,,37.542690395626,결식아동,"아이 본인만",
서울,01,"01,02","1층 카페더네네",127.075242530512,"서울 광진구 광나루로20가길 21",07:00~17:00,,01,"토요일, 일요일",05021,695bda944d774484acfef954ba9339d6.png,카페더네네,02,,176,,37.5452236295101,"결식아동,독거노인","동반 1인",
서울,01,01,"지하1층 초심스터디카페",127.097633545774,"서울 광진구 광장동 470-10",24시간,,02,"365일 영업",04974,02c2348df85642b7833907a174c62dbf.jpg,"초심스터디카페 광장점",01,,325,,37.5414174564432,결식아동,"아이 본인만",
서울,01,01,1층,127.089376720305,"서울 광진구 구의로 8","오전 11:30~ 오후 11:30",,01,"평일 오후 3시~5시",05045,634b4b4f54624a79a189234127647d0e.jpeg,먹오삼,02,,392,,37.5386660343001,결식아동,"동반 1인",
서울,99,01,"102동 130호",127.08158295574,"서울 광진구 아차산로 345","09:00 ~ 04:30",,01,연중무휴,05026,NULL,프레드피자건대점,01,,984,피자L한판+음료,37.5375052411306,결식아동,"아이 본인만",피자L한판+음료
서울,01,"01,02","1층 와플소녀",127.087725602762,"서울 광진구 용마산로22길 12","12:00 ~ 19:30",,01,주말,04941,e3723bef3b134c4c9bca740336ed1c9e.jpg,와플소녀,99,누구든지!,552,,37.5635234656428,"결식아동,독거노인",누구든지!,
서울,99,01,"1층 사무실",127.086132169378,"서울 광진구 천호대로119길 6","평일 오전 9:00 ~ 오후 5:00",,99,"주말,공휴일",04931,14ce6bcfe1844970babcae72796d8146.jpg,"주식회사 중원디앤케이",01,,673,"핫팩 한달치 30개. 매달 지급^^",37.5551597847138,결식아동,"아이 본인만","핫팩 한달치 30개. 매달 지급^^"
서울,99,01,"1층 잉크마루",126.856309530936,"서울 구로구 개봉로 50","오전 10시부터 오후 7시까지",,99,"일요일,공휴일",08332,0838590cb15348b288d16ee6316d4210.jpg,잉크마루,01,,301,"잉크충전, 출력, 복사, 코팅",37.4901255807491,결식아동,"아이 본인만","잉크충전, 출력, 복사, 코팅"
서울,99,01,"007호 곱창의축복",126.856935214844,"서울 구로구 경인로 331","오후 12시 저녁 9시",,01,일요일,08226,d517c458dad94f92b84284605229f880.jpg,곱창의축복,99,"본인과 가족(어린이, 청소년)",522,"곱창, 국밥",37.4976918198582,결식아동,"본인과 가족(어린이, 청소년)","곱창, 국밥"
서울,01,01,"지하115호 식당가",126.895419058727,"서울 구로구 구로동 212-8",11-20시,,01,"공휴일 및 주말",08390,effa2164200d4f168a917f516ac319af.jpg,어부식당,03,,494,,37.4836784271634,결식아동,"동반 2인",
서울,99,"01,02","201호 육회지존",126.858879704708,"서울 구로구 남부순환로97길 20-7","16:30~익일 02:00",,01,별도공지,08328,a0eeb1005b7140d2a8afc793d89f5f18.jpg,육회지존(개봉역점),99,"가족 구성원 전부 가능",101,"육회비빔밥,연어장덮밥,외 모든 식사류",37.4939188532264,"결식아동,독거노인","가족 구성원 전부 가능","육회비빔밥,연어장덮밥,외 모든 식사류"
서울,99,"01,02","1층 113호",126.895318461208,"서울 구로구 디지털로26길 38","11:00 ~ 21:00",,01,15:00~17:00,08393,8bcd01079fdd4c5fa98484ce59fc1a28.jpeg,"오로지라멘 구로지타워몰점",02,,548,"차슈동, 교자, 가라아게",37.4798477003537,"결식아동,독거노인","동반 1인","차슈동, 교자, 가라아게"
서울,99,01,이레가구,126.908598792622,"서울 금천구 금하로23길 33",10시-20시,,03,"매주 주일(일요일)",08573,9177fbb09c2e4171bb2c9f06a885e17d.jpg,이레가구,01,,780,책상/의자,37.4527800064823,결식아동,"아이 본인만",책상/의자
서울,99,01,306호,126.887100662443,"서울 금천구 디지털로9길 46","오전 10시 ~ 밤 10시",,02,일요일,08512,3ec8e39606be4f42914f9bd245532af3.png,"티엔티 스피치",01,,856,"보이스 트레이닝 (예약 필수)",37.4800588086696,결식아동,"아이 본인만","보이스 트레이닝 (예약 필수)"
서울,99,"01,02","1층 더카페 이네스트점",126.890029536025,"서울 금천구 범안로 1155",07:30~21:00,,01,,08587,09ea7f4adc0f413fb7e430694fff1409.jpg,"더카페 이네스트점",02,,850,"음료1, 베이커리1",37.4668187098558,"결식아동,독거노인","동반 1인","음료1, 베이커리1"
서울,99,01,라라브레드1층,127.077743114464,"서울 노원구 공릉동 350-22",10:00~21:00,,01,x,01835,NULL,라라브레드,01,,656,"직원선택 2종",37.6249345631284,결식아동,"아이 본인만","직원선택 2종"
서울,99,"01,02","태릉해링턴플레이스 상가 2층 올가드림",127.08160104563,"서울 노원구 공릉로34길 86",오전10시~오후8시,,99,"월요일,토요일,일요일",01817,NULL,"올가드림뷰티 공릉점",01,,884,"모공케어,여드름케어",37.6257653709603,"결식아동,독거노인","아이 본인만","모공케어,여드름케어"
서울,99,01,"상가동 209호",127.071935248871,"서울 노원구 덕릉로73길 28","평일 :13시-20시30분 / 토요일 : 11시-18시",,01,"매주 일요일,월요일 정기휴무",01706,b9711536cfea4dd38badb90314d3cec7.jpg,헤스론,01,,924,구움과자류,37.6524755833309,결식아동,"아이 본인만",구움과자류
서울,99,01,지층,127.05639992835,"서울 노원구 동일로 1598",11:30~21:30,,01,15:00~17:00,01631,NULL,달인보쌈,01,,475,마늘보쌈도시락,37.6710561405102,결식아동,"아이 본인만",마늘보쌈도시락
서울,01,"01,02,99","효영빌딩 102호",127.073233058704,"서울 노원구 동일로173가길 25",09~20,"산악구조대, 산림청,",03,"일요밀 휴무",01860,b35109ecae0f41ff8640136b36bfd311.jpg,슈마스터태릉점,02,,405,,37.6194106124465,"결식아동,독거노인,산악구조대, 산림청,","동반 1인",
서울,01,"01,99","상가동 2층 201호 용인대금메달태권",127.056999292729,"서울 노원구 동일로250길 18","12:00 ~ 22:00",사회적배려대상자,02,"토. 일. 공휴일",01623,422e88b1d9f64b30907e25cb4c9f5f59.jpg,용인대금메달태권도,01,,892,,37.6818424631869,"결식아동,사회적배려대상자","아이 본인만",
서울,01,"01,02","현성빌딩 지하1층 B04호",127.062249590194,"서울 노원구 상계로 65",10:00-02:00,,99,연중무휴,01693,6b69647919aa4dbca00b07486664b36a.png,"카툰공감 노원역점",01,,559,,37.6563543249568,"결식아동,독거노인","아이 본인만",
서울,99,"01,02","1층 미소한가득",127.063467284016,"서울 노원구 석계로9길 10",12:00~19:00,,99,"일,월,화,공휴일",01901,29261b9d60d64b0cac2290daae94394d.jpg,미소한가득,01,,1061,"보틀케이크 2개 ",37.6175969943174,"결식아동,독거노인","아이 본인만","보틀케이크 2개 "
서울,99,01,"1층이리로레스토랑 ",127.0702954891,"서울 노원구 하계동 208-19","11시30분 ㅡ5시",,01,없음,01790,716fb033e9d24cc4a8079e9e203620fa.png,이리로,01,,985,"돈가스,파스타",37.6388750521797,결식아동,"아이 본인만","돈가스,파스타"
서울,99,"01,02","1층 카페거실",127.066631231518,"서울 노원구 화랑로47길 9",,,01,,01914,e1721cbcbaec405e91268455b4a7948b.jpeg,카페거실,01,,329,"음료메뉴 전부",37.6157458820118,"결식아동,독거노인","아이 본인만","음료메뉴 전부"
서울,02,01,"영진빌딩 106호",127.050075370396,"서울 도봉구 노해로69길 21-11","평일오후4시-12시 주말,휴일오전11시~밤 12시",,01,"둘째넷째 화요일 휴무",01414,1cc9ad8369884b49afad580b4ac29b99.jpg,족발야시장창동역점,03,,359,,37.6531099173117,결식아동,"동반 2인",
서울,99,99,405호,127.035966945313,"서울 도봉구 도당로 76",wannabegoods_lux,"마스크가 필요한 어린이",99,"토,일",01343,e2a4090e32ce4669b6570cb8d9354a4a.jpg,"워너비굿즈 ",02,,808,"어린이 구리사마스크",37.6645720367997,"마스크가 필요한 어린이","동반 1인","어린이 구리사마스크"
서울,02,01,1층,127.04355932961,"서울 도봉구 도봉동 597-21","평일 오전 11시30분 부터 오후 9시30분",,01,"오후2시30분 부터 오후 6시까지",01307,NULL,써이포차나,02,,271,,37.6778319910298,결식아동,"동반 1인",
서울,01,"01,02","1층 교촌치킨 쌍문역점",127.035603430274,"서울 도봉구 도봉로 505","12:00 ~ 01:00",,01,,01442,77166023ca9a479ebdaa2439a075e6c6.jpg,"교촌치킨 쌍문역점",03,,100,,37.6507287394976,"결식아동,독거노인","동반 2인",
서울,99,,"메가커피 창동역점",127.049203340119,"서울 도봉구 마들로11가길 13",09:00~21:00,,01,,01414,NULL,"메가커피 창동역점",99,"첫방문시 맴버쉽쿠폰발급(아이 본인만)",660,"모든 음료",37.652904680016,Nan,"첫방문시 맴버쉽쿠폰발급(아이 본인만)","모든 음료"
서울,01,"01,02","무중력 지대 달 1/6",127.048746708842,"서울 도봉구 마들로11길 75","11::00 - 21:00",,01,일요일,01414,1680fab24b974c73b5c0d8077327325c.jpg,소스공작단,02,,509,,37.6531586763949,"결식아동,독거노인","동반 1인",
서울,02,01,"105호 나주곰탕",127.044821359728,"서울 도봉구 방학동 717-2","오잔8시  부터 오후9시",,01,없음,01332,NULL,바우네나주곰탕,01,,1052,,37.6672859117735,결식아동,"아이 본인만",
서울,01,"01,02",1층,127.038573894401,"서울 도봉구 창동 554-1",16:00-02:00,,01,일요일,01477,NULL,청춘불닭발,02,,1084,,37.636830666863,"결식아동,독거노인","동반 1인",
서울,02,01,"2층 주크(모드베베)",127.037944960884,"서울 도봉구 창동 703",,,99,,01428,60ff90ee67534226bb10b8ec9db5f5ab.jpg,주크(모드베베),,,827,,37.6530446166484,결식아동,Nan,
서울,99,"01,02,99",2층,127.053121101415,"서울 동대문구 이문로1길 16-3","오후2시부터 7시","기초생활수급자 ",02,"토,일,공휴일",02461,1552e0747ff84c12ae5f7e19a9f67475.jpeg,예술의악당음악학원,01,,782,"피아노 교습비 90% 감면",37.5891013521078,"결식아동,독거노인,기초생활수급자 ","아이 본인만","피아노 교습비 90% 감면"
서울,01,"01,02","1층 사미커피",127.071642338987,"서울 동대문구 장한로14길 70",09:30~23:59,,01,"평일 17:30~20:00, 주말X, 공휴일휴무",02642,0facd33502194a9581fe9d3ba50d0bbe.png,사미커피,02,,141,,37.5651255698339,"결식아동,독거노인","동반 1인",
서울,01,01,"1층 유끼노하나",127.072825466117,"서울 동대문구 장한로36길 10","낮12시~익일 새벽 1시(금,토 익일 새벽 2시)",,01,"오후 4시20분~6시 브레이크타임",02522,91f5b229660740f6981fb9e3aca27339.jpg,유끼노하나,01,,419,,37.5774210856086,결식아동,"아이 본인만",
서울,99,01,1층,127.058451232298,"서울 동대문구 전농동 46-71","오전11시부터 오후11시까지",,01,없음,02507,be9f317bf82943e9896e9ee5c5b63183.jpg,"봉수아피자 답십리점",01,,196,"콤비네이션XL 불고기XL 하와이안XL",37.5788006613302,결식아동,"아이 본인만","콤비네이션XL 불고기XL 하와이안XL"
서울,01,"01,02","지하 1층 너나들이",127.050858694,"서울 동대문구 회기동 60-71",12:00~22:00,,01,연중무휴,02454,ab8a85111e9144219ee7b9ccd4909aff.jpeg,"너나들이 만화카페 ",01,,588,,37.5923219539782,"결식아동,독거노인","아이 본인만",
서울,01,01," 3층 정재광 복싱클럽",127.053100873006,"서울 동대문구 회기로 152","오전 12시 부터  오후 10시 까지",,02,"법정 공휴일 모두 쉽니다.",02460,aec747b5bb794391acb2d52205ee752a.jpg,"정재광 복싱 클럽",01,,468,,37.5910683173807,결식아동,"아이 본인만",
서울,99,01,"1층 우측",127.060577373146,"서울 동대문구 휘경로 6-8","오전 11시~오후 7시",,01,"매주 월요일 휴무",02440,f343267741984b2bae35970f7dc3eeed.jpg,"이문동辛냉면 ",01,,904,"냉면, 만두",37.5958064562151,결식아동,"아이 본인만","냉면, 만두"
서울,01,01,"1층 봉식이떡볶이 ",126.931324401659,"서울 동작구 국사봉1길 70","오전 11시30분~오후9시30분",,01,월요일,07043,dd708970061a481cb4ce2d6f690977e2.jpg,봉식이떡볶이,01,,650,,37.4982794476822,결식아동,"아이 본인만",
서울,99,,"스페이스살림 1층 스타트업매장 2호",126.927272487671,"서울 동작구 노량진로 10","13:00 - 20:00 (요일별 상이)",,03,"일,월 휴무",06938,5f33988923e040b78cb960811e1d4f88.jpg,월경상점,02,,181,"누르 생리대",37.5123933402032,Nan,"동반 1인","누르 생리대"
서울,99,"01,99","1층 육대장",126.981328420102,"서울 동작구 사당동 89-6",오전11시~오후9시,독거노인,01,연중무휴,06997,1e1f5f40c5484f6992432d9bcd378a74.jpg,육대장이수역점,02,,239,"육개장,설렁탕",37.4887692431258,"결식아동,독거노인","동반 1인","육개장,설렁탕"
서울,01,01,오태식해바라기치킨,126.971246021729,"서울 동작구 사당로16가길 42","오전 11시 ~ 새벽 1시",,01,주일,07010,51eb19e92a1342c7bbf8fde0085662e9.jpg,"오태식해바라기치킨 사당153점",01,,544,,37.4835794845257,결식아동,"아이 본인만",
서울,01,01,"지하2층 Bread.co 브레댄코",126.947700373641,"서울 동작구 상도로 지하 272",07:00-22:00,,01,,07032,30cf962d1bfa49b3982b3ebd06ec84f6.jpg,브레댄코,02,,910,,37.5032080456431,결식아동,"동반 1인",
서울,01,"01,02,99","지상 1,2층",126.9542749226,"서울 마포구 굴레방로7길 22",09:00~22:00,경찰,01,"구정, 추석 휴무",04115,3e5bb874fd654b32b4e31de088d00d1c.jpg,커피프릭,01,,929,,37.5563504902216,"결식아동,독거노인,경찰","아이 본인만",
서울,01,"01,02",피에스타7커피,126.923901713362,"서울 마포구 동교동 164-18","평일 : 오전 8시~23시,주말 : 오전 9시~23시",,01,연중무휴,04050,e145bd03f14d4927b1f4323c74ea9845.png,피에스타7커피,01,,941,,37.5559645111431,"결식아동,독거노인","아이 본인만",
서울,01,"01,02","2층 (망원동,삼운빌딩)",126.90966969503,"서울 마포구 동교로 67",1200~1900,,02,"토,일요일",04018,NULL,성산베스트플러스학원,02,,623,,37.5537428023198,"결식아동,독거노인","동반 1인",
서울,99,01,"1층 소빛골드스테이션",126.947054064308,"서울 마포구 마포대로 53",09:00~20:00,,01,없음,04158,1a6d0cc3ca76472a80ca63e40aedcc19.png,"sobit gold station",01,,1077,"라면세트와 케잌",37.5414321628548,결식아동,"아이 본인만","라면세트와 케잌"
서울,01,"01,02",102호,126.904193634318,"서울 마포구 망원동 424-9",10시~20시,,03,"없어요(예약하면 됩니다)",03964,16b3720736304ec78434e0e1303b8e07.jpg,달콤헤어,01,,763,,37.5581275138621,"결식아동,독거노인","아이 본인만",
서울,01,"01,02","1층 동경규동",126.896149350546,"서울 마포구 매봉산로2길 68","11:00 ~ 20:00",,01,"15:00~17:00 휴무시간 / 공휴일, 일요일 휴무",03930,db74628119934a94a13b57d621cdd15c.jpg,동경규동상암,03,,898,,37.5763732585256,"결식아동,독거노인","동반 2인",
서울,01,"01,02,99","1층 깊이커피",126.913489362835,"서울 마포구 서교동 384-14","매일 10:00 ~ 24:00","경찰 공무원 소방공무원 20% 할인 ",01,없음,04035,3c1252ec44644f9cba06385689c737e6.jpg,깊이,02,,537,,37.5522379330536,"결식아동,독거노인,경찰 공무원 소방공무원 20% 할인 ","동반 1인",
서울,01,"01,99",2층,126.920938707014,"서울 마포구 서교동 405-17","오전11~익일 오전6시",초등~고등학교1학년까지만(학생증확인),01,연중무휴,04048,4921a1e8403349fda0b6b99fa0d2c3d6.jpeg,슈츄안,99,"본인+동반1인, 복지카드+학생증지참",575,,37.5503889019778,"결식아동,초등~고등학교1학년까지만(학생증확인)","본인+동반1인, 복지카드+학생증지참",
서울,02,01,"지층 좌측호",126.916051533917,"서울 마포구 성미산로13길 89","평일 10~20시 토요일 11~20시 일요일 11~18",,01,"매주 수요일",03974,40247e40ad334a96b07024f542cb71c6.jpg,네임리스커피,02,,750,,37.5648151767356,결식아동,"동반 1인",
서울,99,"01,02","1층 꽃집",126.930335994681,"서울 마포구 와우산로 161",12:00~19:00,,99,"월,화 휴무",04052,634580c512944e23beb723d85e9ac726.jpeg,블루밍부케,02,,360,오늘의꽃다발,37.5553639134904,"결식아동,독거노인","동반 1인",오늘의꽃다발
서울,99,"01,02","전원빌딩 2층 진짜파스타",126.923271338076,"서울 마포구 와우산로 64","화~일 11:30 ~ 21:00",,01,"15:30~16:30 월요일 휴무",04067,NULL,진짜파스타,02,,30,"전메뉴 2만원 이내 제공",37.5502199719304,"결식아동,독거노인","동반 1인","전메뉴 2만원 이내 제공"
서울,01,01,"2층 카페",126.922276165229,"서울 마포구 와우산로11길 9-10",12:00~20:00,,01,,04049,ac59c6bae10c41f78da082586d39363b.png,코코아트리,,,415,,37.5484724654338,결식아동,Nan,
서울,99,"01,02","101호 로샤뷰티",126.929622059266,"서울 마포구 와우산로29길 4-24",10:30-8:00,,99,"매주 달라짐",04052,5f53446e345b47a49857023a4379eb96.jpeg,로샤뷰티,01,,1085,"헤어 커트",37.5549238033154,"결식아동,독거노인","아이 본인만","헤어 커트"
서울,99,01,"2층 201호 두두리두팡",126.907809230389,"서울 마포구 월드컵로23길 18","매주 금토일 오후12시~18시(조기품절시 조기마감)",,01,"매주 월화수목 휴무",04011,6936d260e4bb449aab4f39b743517e7f.jpeg,두두리두팡,01,,56,"1메뉴(케이크/제과 모두포함) 1음료",37.5570912724893,결식아동,"아이 본인만","1메뉴(케이크/제과 모두포함) 1음료"
서울,01,01,"kgit센터 1층 117,118호",126.888982346416,"서울 마포구 월드컵북로 402","평일 11시~9시",,01,,03925,52bf8fa2ef15446cb86a0afba33971c2.png,블리스버거상암점,02,,521,,37.580107752042,결식아동,"동반 1인",
서울,01,"01,02","kgit센터 지하1층 푸드코트 109",126.888982346416,"서울 마포구 월드컵북로 402",11:30~20:00,,01,토일휴무,03925,8c17b93226ee4dfdaecaf69e17a0675d.jpg,모데나,01,,642,,37.580107752042,"결식아동,독거노인","아이 본인만",
서울,02,,"전자회관 B1 피트니스플랜비",126.88838954354,"서울 마포구 월드컵북로54길 11",오전10~오후9시,,99,"공휴일 휴무",03924,a251e38b79344ed4b7bb4bfb2bf05aa4.jpg,피트니스플랜비,99,청소년,749,,37.5808876335017,Nan,청소년,
서울,01,"01,02",218,126.917897379411,"서울 서대문구 가재울미래로 2",9시-18시,,02,,03709,NULL,아하하일본어,01,,448,,37.5744203632344,"결식아동,독거노인","아이 본인만",
서울,01,"01,02",1층,126.913187196599,"서울 서대문구 거북골로 150",오전10시새벽1시,,01,3시~4시,03690,3715e31d6e7c4fc694a5e8149e7cb01d.jpg,줄리앙와플and커피,01,,671,,37.5755555800441,"결식아동,독거노인","아이 본인만",
서울,02,01,"1층 EYE OH",126.927395065288,"서울 서대문구 신촌로 1",10:00~21:00,,99,없음,03785,NULL,아이오안경원,01,,15,,37.5588739584805,결식아동,"아이 본인만",
서울,99,"01,99","1층 JUNH",126.928869411882,"서울 서대문구 연희동 130-13",11-6pm,"저소득층 복지누리카드소지자",02,월요일,03707,1ec0ddf5477e495599be286a3b26beea.jpeg,준에이치(JUNH),02,,915,원데이클래스,37.5673578260953,"결식아동,저소득층 복지누리카드소지자","동반 1인",원데이클래스
서울,99,01,1층,126.929990983596,"서울 서대문구 연희로 89-8",오전11시~밤9시,,01,"매주 일요일",03708,01787a4713cb404cbcc72e5f49180ffc.jpg,황카페,01,,875,"로제떡볶이, 음료",37.5664345254016,결식아동,"아이 본인만","로제떡볶이, 음료"
서울,99,01,"1층 고스트요거트",126.944874696342,"서울 서대문구 이화여대길 52-15","월-금 11-19/토 12-19",,01,"14-15휴게시간/첫째주 토요일,일요일 및 공휴일 휴무",03765,NULL,"고스트요거트 이대점",02,,529,"요거트+콤비네이션 토핑",37.5593342723552,결식아동,"동반 1인","요거트+콤비네이션 토핑"
서울,01,01,1층,126.945797770947,"서울 서대문구 홍은동 48-106",11:00-22:00,,01,없음,03616,d11c3e0d92324dafaef953528248361b.jpg,싸움의고수,02,,63,,37.5938708925936,결식아동,"동반 1인",
서울,01,01,"지하 116호",127.029970916611,"서울 서초구 강남대로 321",오전11시-밤12시,,01,"매주월요일 정기휴무",06627,d9c5db27967f4108bacc8a22625fdbbe.jpg,"구슬함박 서초점",99,"만19세 미만 청소년 및 아동",1013,,37.4915573375838,결식아동,"만19세 미만 청소년 및 아동",
서울,99,01,1층,127.04156190404,"서울 서초구 강남대로12길 50",11시30~14시,,01,14시~17시,06779,1a398b9021244e6eb11ee23f97b2c2c8.jpg,"해물과차돌박이 ",02,,819,점심단품메뉴,37.4708111610875,결식아동,"동반 1인",점심단품메뉴
서울,99,"01,02","장금수부대찌개양재점 ",127.040996709233,"서울 서초구 강남대로30길 73-3","오전11시 오후9시30",,01,"일요일  구정 신정  추석  전일 당일",06741,53491f2f56b5406c8307590061905b75.jpg,"장금수부대찌개양재점 ",02,,44,"부대찌개 ",37.4828757870513,"결식아동,독거노인","동반 1인","부대찌개 "
서울,01,01,"신사제2빌딩 101호 돈가스신사",127.018632257183,"서울 서초구 나루터로15길 6","평일 11:00-21:00 토요일 11:00-15:00",,01,"일요일, 국경일",06524,NULL,돈가스신사,01,,169,,37.5161826191158,결식아동,"아이 본인만",
서울,99,01,"하이브랜드 리빙관 지하1층  림돈",127.036947909974,"서울 서초구 매헌로 16",오전11시~오후8시,,01,"매주 일요일",06771,5aa27dada9dc47e7a3f55da8b4df7362.png,림돈(돈가스),01,,1053,돈가스,37.462467348157,결식아동,"아이 본인만",돈가스
서울,01,"01,02","하이브랜드 지하1층 푸드코트내 113",127.036947909974,"서울 서초구 매헌로 16",09~20,,01,"일요일휴무 14~16시 브레이크타임",06771,a162bf4bab1346a7bf8c7342b7f481ea.jpg,아이언그릴,01,,1069,,37.462467348157,"결식아동,독거노인","아이 본인만",
서울,01,01,"1층 101호 자판기가게",126.984170951853,"서울 서초구 방배천로2안길 96",24시간,,01,없음,06677,535563bd853344e1a1e681ee5f33bddb.jpg,자판기가게,02,,556,,37.4812784039675,결식아동,"동반 1인",
서울,,,"럭스빌딩 6층",126.998004848494,"서울 서초구 서래로 17",,,02,,06581,NULL,원더스잉글리시아카데미,,,413,,37.4966667687424,Nan,Nan,
서울,99,01,"1층 고스트요거트",127.016237149788,"서울 서초구 서초중앙로20길 37","월-금 10-19:30/토 11-19",,01,"14-15휴게시간/첫째주토요일, 일요일 및 공휴일휴무",06634,51fd163190084f8e9a62356733328acf.jpeg,"고스트요거트 교대본점",02,,530,"요거트+콤비네이션 토핑",37.4925406797603,결식아동,"동반 1인","요거트+콤비네이션 토핑"
서울,99,01,만석돼지갈비,127.034748910821,"서울 성동구 고산자로12길 2","11시반부터 10시",,01,없음,04744,4c4bc9de51bc4436852bf4a22bd4c8e4.jpg,만석돼지갈비,02,,612,"정심식사 2인분,저녁 삼겹또는갈비 2",37.5601858113006,결식아동,"동반 1인","정심식사 2인분,저녁 삼겹또는갈비 2"
서울,01,"01,02","카페 드 모나코",127.038836506223,"서울 성동구 고산자로2길 65","오전9시 ~ 오후 10시",,01,연중무휴,04745,NULL,"카페 드 모나코",01,,1011,,37.556198526017,"결식아동,독거노인","아이 본인만",
서울,99,01,"투썸플레이스  금호하이리버점",127.024553084225,"서울 성동구 금호로 105",8~23시,,99,없음,04728,fe855ad33ae64f6abe0e246a43acd983.jpg," 투썸플레이스  금호하이리버점",01,,83,"샌드위치류. 브레드류. 음료류. 케익",37.5523763631514,결식아동,"아이 본인만","샌드위치류. 브레드류. 음료류. 케익"
서울,01,01,"상가152동 비1층 비106호",127.02634785313,"서울 성동구 무학로 33",10:00~21:00,,01,"매주 월요일",04702,6aad57af5ffa49cfb0fbc85bd7708efd.jpg,돈카츠마켙왕십리점,02,,696,,37.5691641596929,결식아동,"동반 1인",
서울,,01,"1층 쑤쑤타이",127.049094180399,"서울 성동구 상원1길 12",,,01,,04779,NULL,쑤쑤타이,01,,658,,37.544970880487,결식아동,"아이 본인만",
서울,01,"01,02,99","성원상떼뷰오피스텔 107호 루트비커피",127.062606836404,"서울 성동구 아차산로15길 10","07:00 ~ 18:30","소방관 1인 무료, 추가인원50%할인",01,"일요일 (임시휴무있음)",04798,d6cd6ec5b9634719b09c62427c8b4cb2.png,"루트비커피 성수점",01,,848,,37.5436962428787,"결식아동,독거노인,소방관 1인 무료, 추가인원50%할인","아이 본인만",
서울,99,01,"vip빌딩 2층",127.030650698533,"서울 성동구 왕십리로 353","11:00 ~ 21:00",,99,없음,04710,aa6c3078c77746f2ab9a91f7304b53a6.jpg,"어반그라운드헤어 상왕십리점",01,,619,"쥬니어 커트",37.5636338891177,결식아동,"아이 본인만","쥬니어 커트"
서울,99,"01,02",1층,127.033071166282,"서울 성동구 왕십리로21가길 1",11:00~23:00,,01,없음,04715,NULL,더짜글왕십리점,02,,988,"짜글이1인분,짜글이2인분",37.5610524214026,"결식아동,독거노인","동반 1인","짜글이1인분,짜글이2인분"
서울,99,01,"Golden House 1층",127.030320618807,"서울 성북구 고려대로24가길 13-2","PM 5:00 ~ AM 1:00",,01,"정기휴무 없음.",02856,8629c0845dc94935b2d489d9ae1de841.png,"주식회사 늘",01,,429,"식사류 모든 품목",37.5853376752738,결식아동,"아이 본인만","식사류 모든 품목"
서울,99,01,"1층 대연생고깃간",127.06114839724,"서울 성북구 돌곶이로22나길 29","오전9시30분~ 저녁9시30분",,01,,02784,348744d6fc504e8e8825ebf5f2f1a965.jpg,대연생고깃간,01,,1079,"모든 고기 20.000원 상당",37.6092060500774,결식아동,"아이 본인만","모든 고기 20.000원 상당"
서울,99,"01,02","지층 사계절치킨",127.018935526044,"서울 성북구 동소문로24길 31","오전10시부터 새벽2시까지",,01,앖음,02845,3de914eca6f4496eb9c718a21e0a2097.jpg,대한푸드(사계절치킨),02,,346,"치킨 세가지 후라이드간장 양념",37.5922615653835,"결식아동,독거노인","동반 1인","치킨 세가지 후라이드간장 양념"
서울,99,"01,02",1층,127.019376898115,"서울 성북구 보문로34길 72-4","오전 10시 30분~ 밤 12시",,01,"매주 월요일",02849,b7c3a1230d4f45fab4e9801c4897f731.jpg,"나이스 샌드위치",99,"아이 본인과 친구들 사주고 싶을때  ",298,"모든 품목이고 간식도 챙겨 보낼께요",37.5909710928683,"결식아동,독거노인","아이 본인과 친구들 사주고 싶을때  ","모든 품목이고 간식도 챙겨 보낼께요"
서울,01,"01,02,99",1층,127.015445141281,"서울 성북구 서경로 37","11:00 ~ 21:30 (마지막 주문 20:30)","군인 경찰",01,"평일 15:00 ~ 17:00 신정,명절당일",02716,08949426e4244223b94f8a1921d30975.png,하오하오츠,02,,240,,37.6071243685627,"결식아동,독거노인,군인 경찰","동반 1인",
서울,99,,"근린상가2동 2103호(108동상가)",127.02878397742,"서울 성북구 숭인로 50",11:00~21:00,,01,15:00~16:30,02727,39af29003b2a4e18b73c8bb2c7ec3c15.jpg,72420미아사거리점,02,,147,"쌀국수 및 볶음밥",37.61198667089,Nan,"동반 1인","쌀국수 및 볶음밥"
서울,99,01,지하1층,127.029728957428,"서울 성북구 안암동5가 104-30","9시부터 새벽3시",,99,없습니다.,02856,NULL,"닥터브이 코인노래연습장",01,,344,"의류,신발사업도하고있습니다 신발,옷",37.5839619191362,결식아동,"아이 본인만","의류,신발사업도하고있습니다 신발,옷"
서울,02,"01,99",1층,127.042981214423,"서울 성북구 장월로1길 111","화수목금 12:30~7시(제품 소진시 조기마감)",기초수급가정아동,01,토일월,02752,387a290a2eb44ae881e327e20ecf934a.jpg,샤롱샤롱,01,,257,,37.6043070045892,"결식아동,기초수급가정아동","아이 본인만",
서울,99,01,1층,127.052173668684,"서울 성북구 장위동 66-323","오전11시30분 ~ 오후9시",,01,"오후2시~오후5시 재료준비시간, 마지막주문 8시30분",02771,af77a86280214cf6a3cbc0b16c6d34fe.gif,서민스시,02,,506,"점심메뉴 2인 지급 26,000원상당",37.6095747190865,결식아동,"동반 1인","점심메뉴 2인 지급 26,000원상당"
서울,01,"01,02","상가1층 쌀똑핫도그",127.0421197278,"서울 성북구 하월곡동 227",11:00-23:0,,01,연중무휴,02751,45dcdccc710242ceabee6556e7b3ec8b.jpg,"쌀똑핫도그 월곡직영점",02,,501,,37.6032775735046,"결식아동,독거노인","동반 1인",
서울,99,"01,99",기와집갈비,127.052289671009,"서울 성북구 화랑로25길 18",오전11~오후10,독거노인,01,"매주 일요일",02771,NULL,발효명가기와집갈비,02,,129,식사류,37.6094542054792,"결식아동,독거노인","동반 1인",식사류
서울,01,01,"102동119호 필라멘",127.120436228994,"서울 송파구 가락동 80","11-14.30  16:30-21:00",,01,15:00-16:30,05718,52e8bd07e7dd40cd9693f2f1d7dffa29.jpg,필라멘,01,,183,,37.4950644942941,결식아동,"아이 본인만",
서울,01,"01,02","1층 카페시아 아틀리에",127.123666302059,"서울 송파구 문정로1길 34","10:00 ~ 20:00",,01,없음,05805,73a0fe1b3bf04b3ca3c0664d50a79a1f.jpg,카페시아아틀리에,01,,118,,37.489163527231,"결식아동,독거노인","아이 본인만",
서울,99,01,106호,127.09859524555,"서울 송파구 삼학사로12길 14","10:00 ~ 22:00",,01,,05679,04fa263d79684337ab3d43ff74869011.jpg,"달떡볶이 잠실점",02,,620,"초승달세트(떡볶이,순대,튀김,음료)",37.5015438732762,결식아동,"동반 1인","초승달세트(떡볶이,순대,튀김,음료)"
서울,02,01,"2층 입분식가정집",127.110401710301,"서울 송파구 송파동 51-4",11:30~21시,,01,없음,05619,NULL,입분식가정집,03,,321,,37.509998549661,결식아동,"동반 2인",
서울,99,"01,02,99",101호,127.110326108481,"서울 송파구 송파동 51-8","10:00 -22:00","65세이상 어르신",01,연중무휴,05619,a68ce74d494045d2b973174b6cb84dab.jpg,천향마라탕잠실점,03,,507,마라탕,37.509889148291,"결식아동,독거노인,65세이상 어르신","동반 2인",마라탕
서울,99,01,"장미상가 A동 314호",127.099280476931,"서울 송파구 신천동 7",10-8,,03,"명절 외 연중무휴",05504,3540ca9f394847518e118822c2cb4e36.jpg,헤어매직,01,,418,"컷트 무료",37.5188849274204,결식아동,"아이 본인만","컷트 무료"
서울,02,01,"현대백조아파트상가 a동 102호",127.129259504158,"서울 송파구 오금동 11","오후 3시~새벽 1시",,01,없음,05652,1ff26b78ea274cc1be1bd18d8b206cb4.jpg,1974,02,,818,,37.5093910634084,결식아동,"동반 1인",
서울,99,01,"라라브레드 1층",127.109104693485,"서울 송파구 오금로16길 4","10:00 ~ 21:00",,01,x,05618,NULL,"라라브레드 잠실점",01,,655,"직원선택 2종",37.511132677323,결식아동,"아이 본인만","직원선택 2종"
서울,99,"01,02","상가동 103호",127.102235824155,"서울 송파구 올림픽로35가길 10","오전8:00 ~ 오후7:00",,01,"주말 및 공휴일 휴무",05510,7c431ea4c25f4855980c55920e5b56e1.jpg,"티테리아 (TEA TERIA)",01,,992,"음료 1잔 (4,000원 기준)",37.5169129939061,"결식아동,독거노인","아이 본인만","음료 1잔 (4,000원 기준)"
서울,99,"01,02,99","1층 북경짜장",127.141629765798,"서울 송파구 위례광장로 120",10:00~20:30,"정말 돈없고 배고픈 사람들",01,없음,05852,2a126e2cc2904fc69dbdbfd4d72fc803.jpg,"북경짜장 위례신도시점",01,,598,"짜장, 짬뽕, 볶음밥,1인탕수육등등",37.4750145597312,"결식아동,독거노인,정말 돈없고 배고픈 사람들","아이 본인만","짜장, 짬뽕, 볶음밥,1인탕수육등등"
서울,02,"01,02","1층 105호 서서울",126.831307264404,"서울 양천구 남부순환로58길 33",오전9시~저녁10시,,01,연중무휴,07915,e42543fe10864cb88fa05b06daccfaed.jpg,서서울,02,,262,,37.5291752709283,"결식아동,독거노인","동반 1인",
서울,,,B1,126.870615708032,"서울 양천구 목동서로 213",,,01,,07995,NULL,한옥안동국시,,,85,,37.5280169945095,Nan,Nan,
서울,99,"01,02","1층 성찬푸드/족발,냉면,짜글이",126.83559907142,"서울 양천구 신월동 122-15","오전11시30분~익일 02시 까지",,01,없음,07923,beadedd2f92e4098a226e9e643631c06.jpg,성찬푸드,99,"그날 상황에 따라 달라질수 있습니다",260,냉면류,37.5301152104281,"결식아동,독거노인","그날 상황에 따라 달라질수 있습니다",냉면류
서울,01,"01,02","104호 유캔두잇신월점",126.833361618991,"서울 양천구 신월동 22-19",오전10시~밤10시,,01,연중무휴,07903,NULL,"유캔두잇 신월점",01,,1065,,37.5407345909413,"결식아동,독거노인","아이 본인만",
서울,99,"01,02,99","1층 피자베이",126.860058197015,"서울 양천구 신월로 351","오전 11시부터 밤 12시까지","식사를 잘못하는 불우한이웃!!",01,,08021,a2d2c05bfa7548a19dc37c3e7b87247b.jpg,피자베이본점,99,"피자 한판으로 제공 ",184,"오늘의요일피자 와 음료수 증정",37.5221688088692,"결식아동,독거노인,식사를 잘못하는 불우한이웃!!","피자 한판으로 제공 ","오늘의요일피자 와 음료수 증정"
서울,99,01,1층,126.858453438138,"서울 양천구 신월로36길 3-1",12시~24시,,01,연중무휴,08086,NULL,푸라닭신정1동점,01,,546,푸라닭치킨,37.5212685974727,결식아동,"아이 본인만",푸라닭치킨
서울,01,01,"601호 엘리트태권도장",126.8325646968,"서울 양천구 신정이펜2로 22",13시30분~21시,,02,"토,일,공휴일",08049,40bc632c9f0d4ecc9300b24388d3cfaa.jpg,엘리트태권도,01,,264,,37.5128956855906,결식아동,"아이 본인만",
서울,99,01,1층,126.897180900565,"서울 영등포구 당산로35길 6","11:00 ~ 22:00",,01,"공휴일, 일요일 (코로나로 인해 토요일 당분간 휴무)",07219,NULL,당산돈,01,,189,김치찌개,37.5289874492952,결식아동,"아이 본인만",김치찌개
서울,02,01,1층식당,126.898142005476,"서울 영등포구 도림동 232-2",11시~~9시,,01,3시~5시주말휴무,07374,NULL,쿠이대,01,,412,,37.5071563489561,결식아동,"아이 본인만",
서울,99,01,"모두의주방 5호 홍대돈부리",126.904945678759,"서울 영등포구 도신로29사길 3",09:00-20:50,,01,연중무휴,07368,c8d89272273b4e8e9279f1d9ca0e8bf0.jpg,"홍대돈부리 영등포점",02,,58,"가츠동, 믹스가츠동, 가라아게동, 규",37.5101832679728,결식아동,"동반 1인","가츠동, 믹스가츠동, 가라아게동, 규"
서울,02,"01,02","모두의주방 1호 까사피에스타",126.904945678759,"서울 영등포구 도신로29사길 3",09:00-20:50,,01,"연중무휴, 16:00-17:00 쉬는시간",07368,d2bc1a7e929540f881a4418f3d72f270.jpg,"까사피에스타 영등포점",02,,59,,37.5101832679728,"결식아동,독거노인","동반 1인",
서울,01,"01,02","1층 직구삼",126.904551253945,"서울 영등포구 디지털로66길 8","11:00에서 새벽1시",,01,연중무휴,07439,b1a63f49cc974787a33a5774f3bfd301.jpg,"직화삼겹직구삼 대림신길점",01,,268,,37.4925255829277,"결식아동,독거노인","아이 본인만",
서울,01,01,"1층 브로스키친",126.8917809647,"서울 영등포구 선유동1로 6-4",11-25,,01,없음,07263,af0fe8516c2349a99ce6556a055a519c.jpg,브로스키친,99,"어려운아이들과 어려운 가정에게",461,,37.5224661293237,결식아동,"어려운아이들과 어려운 가정에게",
서울,01,01,"롯데마트 1층 샐러디",126.891572019703,"서울 영등포구 선유로 138",오전11시-오후8시,,01,오후3-5시(변동있음),07255,NULL,"샐러디 롯데마트서울양평점",01,,496,,37.5260658911576,결식아동,"아이 본인만",
서울,99,,"105호 갤러리딤",126.886815410375,"서울 영등포구 선유로3길 10",11:00~19:00,,03,"주말 및 공휴일",07285,bd5c4337e359450fbca0cef94c0295b5.jpg,디와이코퍼레이션(GalleryDIM),02,,194,"제로웨이스트 제품 or  체험",37.5161003058556,Nan,"동반 1인","제로웨이스트 제품 or  체험"
서울,01,"01,02",1층,126.91836346862,"서울 영등포구 신풍로 110",09~21,,01,없음(로테이션),07432,5acdcc30be7b4e8783e11f27c07196fd.jpg,"신길점추오정남원추어탕 ",02,,928,,37.4997629977614,"결식아동,독거노인","동반 1인",
서울,99,01,"지하1층 113호 더복희네",126.918106683928,"서울 영등포구 의사당대로 26",오전11:00~오후10:00,,01,없음,07236,c91cfffcd1d74a5f9e5e6fffb2c32785.jpg,더복희네,02,,122,"1인 1메뉴 제공가능합니다.",37.526537141271,결식아동,"동반 1인","1인 1메뉴 제공가능합니다."
서울,01,01,107호,127.007801799645,"서울 용산구 독서당로 22",09:00~20:00,,01,일요일,04410,5652a6fe6c32462c961681b83236348d.jpg,"본도시락 한남점 ",02,,445,,37.5301631563664,결식아동,"동반 1인",
서울,99,01,805호,126.967776259525,"서울 용산구 새창로 217",6:30-22:00,,99,"법정공휴일, 주말",04376,8595f5ee5594457aaae9a3c8228ca59d.jpg,"아힘사 요가&명상",02,,29,"요가 일반 수련",37.5302166820111,결식아동,"동반 1인","요가 일반 수련"
서울,99,"01,02,99","전자랜드 본관 5층 B501호",126.959558538475,"서울 용산구 청파로 74",11시~20시,군장병,01,없음,04372,0bd7425eaaf9488eb1e45bcc16de150d.png,더트레인,02,,295,"음료 및 기차모디오라마 10분 무료",37.5327888550584,"결식아동,독거노인,군장병","동반 1인","음료 및 기차모디오라마 10분 무료"
서울,02,01,용산역내인포메이션앞꽃집,126.964741503485,"서울 용산구 한강대로23길 55",08~23,,99,연중무휴,04377,abef114865004ac9af338c6da174d31c.jpg,인스타일,01,,889,,37.5297718014452,결식아동,"아이 본인만",
서울,02,01,"1층 얌샘김밥",126.971670413645,"서울 용산구 한강대로77길 18","07시 ~ 24시",,01,"명절 휴무",04321,NULL,"얌샘김밥 남영점",01,,113,,37.5420752082262,결식아동,"아이 본인만",
서울,01,01,"1층 ",126.911788989976,"서울 은평구 갈현동 509-1",09~19시,,03,,03325,08fbc2ac75834f45a21ed10180076746.jpg,선경하우징,01,,812,,37.6151956362061,결식아동,"아이 본인만",
서울,99,01,1층,126.92267333368,"서울 은평구 서오릉로 72","아침 10시~ 저녁 9시반",,01,매주일요일,03395,NULL,일월만두,01,,764,"아이가 먹고싶은거",37.6068527247103,결식아동,"아이 본인만","아이가 먹고싶은거"
서울,02,01,"1층 로드락후라이드",126.910481638687,"서울 은평구 신사동 7-24",14시-02시,,01,없음,03422,a35893e39cc24959ad269fadd24a2917.png,"로드락후라이드 은평신사점",02,,332,,37.6014495198005,결식아동,"동반 1인",
서울,99,"01,02,99","514동 상가 105B",126.93681895439,"서울 은평구 연서로48길 11","10시부터 2시",독거노인,99,없음,03308,da9578db093a418ea1d1cb73ce509ca1.jpg,달아요,02,,919,과일,37.6377914977696,"결식아동,독거노인,독거노인","동반 1인",과일
서울,01,"01,02,99","1층 카페단발소녀",126.919723450904,"서울 은평구 응암로 285",11~21,국가유공자,01,,03454,cfd1a1784ae04d8097b1242485df2a8f.jpg,단발소녀,01,,81,,37.5971843004972,"결식아동,독거노인,국가유공자","아이 본인만",
서울,99,01,"1층 108호 갓츠킹 가마솥돈까스 진",126.918572501207,"서울 은평구 진관1로 21-39","11:00~21 :00/ 라스트오더 20:00",,01,,03311,57e564f070f243e0a57f4d688699fcb5.png,"갓츠킹 가마솥돈까스 진관점",01,,730,"아이가 먹고싶은거",37.6338625622068,결식아동,"아이 본인만","아이가 먹고싶은거"
서울,01,01,"911동103호 갈현동할머니떡볶이 ",126.920932686788,"서울 은평구 진관3로 67",10:30~19:30,,01,"일,월요일",03301,297b1cb2c49849dfb930a8f01006dfc1.jpg,"갈현동할머니떡볶이 ",01,,441,,37.6427644551257,결식아동,"아이 본인만",
서울,01,01,1층,126.967241206598,"서울 종로구 옥인길 28",24시간,,99,없음,03034,1f8123a650ae43529c4594ee4080c07f.jpg,콤콤오락실,01,,805,,37.5809732426286,결식아동,"아이 본인만",
서울,01,01,104-1101,126.979775832051,"서울 종로구 율곡로 6",10:30~19:30,,01,"일요일 격주 휴무",03142,c1caf2782c6148cc890a984add62d63c.png,"부산아지매국밥 트윈트리타워점",02,,505,,37.5754538625026,결식아동,"동반 1인",
서울,99,01,2층연혜인참치,127.010348326711,"서울 종로구 종로 286",오전10:00~오후10:00까지,,99,15:00~16:30까지,03119,NULL,연혜인참치,02,,692,초밥.매운탕(대구.알탕.회덮밥.알밥,37.5708583552678,결식아동,"동반 1인",초밥.매운탕(대구.알탕.회덮밥.알밥
서울,01,01,"1층 102호 넘버나인",127.014784809929,"서울 종로구 창신동 436-64",밤12-낮12시,,99,일요일,03120,54483236fdfd45cb884ff43df8b00bf0.jpeg,"레기돌(넘버나인,해피필링)",01,,310,,37.5701137509736,결식아동,"아이 본인만",
서울,01,01,2층,126.961571168049,"서울 종로구 창의문로11길 23","11:30 - 21:00",,01,"15:00 - 16:30",03022,6abff8f6f10d46a8942d87829dddd1cf.jpeg,레이지버거클럽,03,,630,,37.5933897356575,결식아동,"동반 2인",
서울,01,"01,02","글로리아타운 A동 107호",126.96900620111,"서울 종로구 평창문화로 75",12:00~23:30,,01,"구정, 추석",03009,NULL,교촌치킨평창점,02,,783,,37.606862635259,"결식아동,독거노인","동반 1인",
서울,01,"01,02",1층,126.968138607192,"서울 중구 만리재로 209",11시~10시,,01,3시~5시,04508,ec19ca298eeb4d7683ad0daf62716e26.jpg,공일부엌,03,,736,,37.5560659151376,"결식아동,독거노인","동반 2인",
서울,99,"01,02,99",지하1층,127.093194085964,"서울 중랑구 겸재로50길 53",11:00~23:00,독거노인,01,없음,02199,9afcff159785451ebe1b213e3e4865ac.jpg,소소한얼,03,,721,식혜.수정과,37.5890780469682,"결식아동,독거노인,독거노인","동반 2인",식혜.수정과
서울,01,"01,02",1층,127.081018296555,"서울 중랑구 공릉로12가길 29","평일 1시 - 12시  주말 11시 - 12시",,01,없음,02019,NULL,"쌀똑핫도그 태릉점",01,,25,,37.6172761295706,"결식아동,독거노인","아이 본인만",
서울,01,"01,99",1층,127.074151076772,"서울 중랑구 동일로157길 65",11:00-20:00,"독거노인 어르신",01,"매주 수요일 휴무",02008,ccb98eb56ffe4cb588c2aef655a33adf.jpeg,카페더메뉴얼,99,"가족이나 친구들과 함께 와도 좋습니다",126,,37.6093356369813,"결식아동,독거노인 어르신","가족이나 친구들과 함께 와도 좋습니다",
서울,99,01,함평국밥,127.089216903184,"서울 중랑구 봉우재로33길 73","오전 11:30오픈 오후 10시 마감",,01,일요일,02149,6460347d4dbf46ec9560e483a2aefbd4.jpeg,함평국밥,02,,109,국밥/비빔밥,37.5954703227436,결식아동,"동반 1인",국밥/비빔밥
서울,01,01,네네치킨,127.095849500583,"서울 중랑구 신내로 135",18:00~24:00,,01,매주월요일,02026,788695d0e08a4668b5e967c2dd7637e1.jpg,네네치킨신내1점,01,,319,,37.6113848049141,결식아동,"아이 본인만",
서울,99,"01,02",1층,127.097213818061,"서울 중랑구 신내로10길 29","10:00 ~22:00",,01,"15:00 ~16:00",02069,b50f5e8fd0bf42659436f976ee75cc16.jpg,마석감자탕,01,,911,"뼈해장국 / 돈가스 / 뚝배기불고기",37.6045191417288,"결식아동,독거노인","아이 본인만","뼈해장국 / 돈가스 / 뚝배기불고기"
서울,01,"01,02","1층 Breeze",127.098694579678,"서울 중랑구 용마산로100길 7","평일 09시 ~ 18시",,01,"매주 일요일, 첫째/셋째 토요일",02184,cf408ef5ebe24e688ead4450811d6aa7.jpeg,브리즈,02,,376,,37.591610949513,"결식아동,독거노인","동반 1인",
경기,01,01,"원흥힐사이드파크 테그42 고양도래울점",126.869969444965,"경기 고양시 덕양구 도내동 951",10:00~21:00,,01,,10551,a09d998281984e709f0de35f7e89526e.png,"테그42 고양 도래울점",02,,439,,37.6359092038883,결식아동,"동반 1인",
경기,01,01,보광로188,126.910897630486,"경기 고양시 덕양구 벽제동 563-3",오전11시~저녁11시,,01,무,10267,4a929d71fad24f959bba8fa0b33a2f47.jpg,"캠핑하고싶닭 ",02,,886,,37.7311102845044,결식아동,"동반 1인",
경기,99,01,1층,126.888558601504,"경기 고양시 덕양구 신원로2길 62",11시~24시,,01,"월요일 휴무",10570,NULL,델리지오소,03,,35,"모든 파스타 제공",37.6610000597051,결식아동,"동반 2인","모든 파스타 제공"
경기,99,01,"1층 다비치안경",126.835196627681,"경기 고양시 덕양구 충장로 140","10:00 ~ 21:00",,99,"명절 당일 휴무",10495,c043a4f3287647a19c711dd3d97bf2de.jpg,"다비치안경 행신점",01,,849,안경테+안경렌즈,37.6247395805558,결식아동,"아이 본인만",안경테+안경렌즈
경기,99,01,"복합상가 2층, 작심스터디카페",126.832178837717,"경기 고양시 덕양구 화정동 1000-5","오전 08:30 ~ 익일 01:30",,02,,10503,02c517e57c244391b7ae6d6a4c636882.jpeg,"작심스터디카페 고양화정점",01,,905,"1개월 이용권",37.6301062826955,결식아동,"아이 본인만","1개월 이용권"
경기,01,01,1층,126.832595564763,"경기 고양시 덕양구 화중로130번길 5-11",오전11시~오후10시,,01,"매주 월요일 휴무",10477,bbd1bb991a0e4eca86012d0320c0d5cb.png,"마라영웅 화정점",01,,959,,37.6391192428483,결식아동,"아이 본인만",
경기,01,01,"1층 한남동 그집 백석역점",126.788586276394,"경기 고양시 일산동구 강송로73번길 53-11",17:00~02:00,,01,"매주 월요일",10446,NULL,"한남동그집 백석역점",03,,42,,37.6446166641407,결식아동,"동반 2인",
경기,02,01,"1층 아이노스",126.779764479327,"경기 고양시 일산동구 산두로213번길 22",10-10,,01,"매주 일요일",10358,ec5058e863434bb48fbb3b5f108957d4.jpeg,아이노스,02,,881,,37.6746016279157,결식아동,"동반 1인",
경기,99,01,"1층 ",126.799123270483,"경기 고양시 일산동구 숲속마을로 50-42",11:30~22:00,,01,연중무휴,10306,a8d836eacb2d4c4ab3a32e2e5639eec5.jpg,"9라파부대찌개 본점",01,,636,"9라파부대찌개, 제주생고기돈까스 ",37.6679205641492,결식아동,"아이 본인만","9라파부대찌개, 제주생고기돈까스 "
경기,99,01,101-1호,126.766457823425,"경기 고양시 일산동구 장항동 752","수 - 일 낮 12시 - 저녁 8시",,01,"월, 화",10401,c6a35a2fe71148bd8e34b83abda7f995.jpg,"몽실몽실 케이크",01,,478,케이크,37.6601474883259,결식아동,"아이 본인만",케이크
경기,01,01,1층,126.778132105027,"경기 고양시 일산동구 정발산동 1131",오전12시30분~오후11시30분,,01,"매주 월요일",10357,2f7c69a92700437581f969aa66cd7fe3.png,"피자1989정발산점 ",01,,402,,37.6744376538924,결식아동,"아이 본인만",
경기,99,01,"웨스턴돔A 3층",126.772038816453,"경기 고양시 일산동구 정발산로 24",11-6,,99,"월,수",10403,b59be36081bc4d7b95cbb6218655e6f1.jpeg,"세븐스 예나",01,,407,커트,37.6558964094856,결식아동,"아이 본인만",커트
경기,01,"01,02","B동 115 카페메르시",126.773786102845,"경기 고양시 일산동구 정발산로42번길 24","평일 11-19시 주말 12-19시",,01,,10403,72fe02d00dac45db973d84f3a1a4d2b7.jpg,카페메르시,01,,907,,37.6561836720528,"결식아동,독거노인","아이 본인만",
경기,02,01,"105호 조은약국",126.77085561273,"경기 고양시 일산동구 중앙로1261번길 55","10-21(평일) 10-17(토요일)",,03,"일요일 및 공휴일",10402,6bc2e8ebf7d04ae1ad0fa86175bd66b5.jpeg,조은약국,01,,340,,37.6575839055984,결식아동,"아이 본인만",
경기,01,01,상가1동120호,126.749893444303,"경기 고양시 일산동구 태극로 8",24시간,,01,없음,10394,ebe1470a07874cde82d541cd913fb787.jpg,"집어가 킨텍스원시티점",02,,476,,37.6639714328316,결식아동,"동반 1인",
경기,02,01,"1층 핸드메이드브런치카페 ",126.716194279,"경기 고양시 일산서구 가좌로 129",9:30~20:00,,01,월요일,10209,b388bffaa1e34642aa3724d75fc8195b.jpg,"핸드메이드브런치카페 ",02,,779,,37.6865406683287,결식아동,"동반 1인",
경기,01,01,"레이킨스몰2층 228호",126.751646859873,"경기 고양시 일산서구 대화동 2602",11:00-8:30,,01,"연중무휴(임시휴무 네이버에 공지)",10391,NULL,수라간,01,,659,,37.6679946733069,결식아동,"아이 본인만",
경기,99,"01,02","1층 드림라운지",126.754547500636,"경기 고양시 일산서구 성저로 68","10:00~22:00 (금,토 : ~23:00)",,03,"매주 수요일 휴무",10368,47de6044bad3427486503048b7779054.png,드림라운지,01,,712,"대관시-카페음료 & 일부 콘텐츠 무료",37.6849059569614,"결식아동,독거노인","아이 본인만","대관시-카페음료 & 일부 콘텐츠 무료"
경기,01,01,"105호 ",126.764483294722,"경기 고양시 일산서구 일산로 576",11:00-22:00,,01,,10374,a18612f411854f488f1b993978cddb4a.jpg,츄러스1500일산후곡점,02,,707,,37.6794990067308,결식아동,"동반 1인",
경기,01,01,"107호 샐러디",126.762798836447,"경기 고양시 일산서구 중앙로 1413",09:30-20:30,,01,연중무휴,10386,NULL,"샐러디 주엽역점 ",01,,709,,37.669037264497,결식아동,"아이 본인만",
경기,01,01,"303호 작심스터디카페",126.767698412603,"경기 고양시 일산서구 탄현동 1655",08:00-02:00,,02,없음,10248,050a612287314237a4ca7dc8ba6054b7.jpg,작심스터디카페일산탄현점,99,"고등학생만가능 (중학생은연락주세요)",1032,,37.702190132597,결식아동,"고등학생만가능 (중학생은연락주세요)",
경기,99,01,"현해프라자 107호",126.753968443817,"경기 고양시 일산서구 하이파크2로 42",09:00~21:00,,01,"매주 일요일 휴무",10234,6acfab4e821e41a7bb2b5a85037901bf.jpg,이샘반찬,01,,57,"반찬,국",37.6990682516669,결식아동,"아이 본인만","반찬,국"
경기,99,01,"든든한병원 1층101호 죽이야기",126.755916526555,"경기 고양시 일산서구 하이파크2로 60",08:00~20:00,,01,"매주 일요일",10234,38fba2ac99c24a65b09fe0ea96cb1921.jpg,"죽이야기 든든한병원점",01,,573,야채죽,37.6990954551976,결식아동,"아이 본인만",야채죽
경기,99,01,"1층 대디스오피스",126.754701004824,"경기 고양시 일산서구 하이파크3로 6",11:00-22-20,,01,3:00-4:30,10236,ba494d77a34d4d8db7995c42a0042b26.jpeg,대디스오피스,99,"대상자본인(결식아동, 소방관)",75,"레귤러피자 무료",37.6925469959944,결식아동,"대상자본인(결식아동, 소방관)","레귤러피자 무료"
경기,02,01,서편2맞이방화훼점,126.884877197434,"경기 광명시 광명역로 21",10:00~21:00,,99,연중무휴,14347,92adc1c2f6354f9f803603d6ec286938.jpg,밀알플라워,01,,966,,37.4163635638303,결식아동,"아이 본인만",
경기,99,01,"광명무역센터 b동 112호",126.88918699963,"경기 광명시 일직로 72",11시30분~16시,,01,"일요일,방문전 꼭 전화하고 오세요 조기마감을 자주해요",14348,5761f0b06a224bb0a30911e60380b13e.jpg,"도톰카츠 광명점",01,,269,등심카츠,37.4200359072339,결식아동,"아이 본인만",등심카츠
경기,,,"동양아파트 상가동",126.886917234241,"경기 광명시 하안로 196",,,01,,14313,0aa97aee9da64d799fc93a6de662666d.jpg,"뚜레쥬르 소하동양점",99,소방관,874,,37.4546483307326,Nan,소방관,
경기,99,01,"1층 김찌개",127.251885330184,"경기 광주시 경안안길 5",오전11시~오후11시,,01,"매주월요일 휴무",12755,79400b8e34f943a6822d2387e0065a3f.jpg,김찌개,01,,350,"찌개 또는 짜글이 1인분",37.4145078307726,결식아동,"아이 본인만","찌개 또는 짜글이 1인분"
경기,01,01,"1층 명랑부대찌개",127.255091151729,"경기 광주시 문화로 38","10시 22시",,01,없음,12760,859074ecde65408593693b693b118ec8.jpg,"명랑부대찌개 경안점",02,,550,,37.4070787362445,결식아동,"동반 1인",
경기,99,"01,02","1층 오케이컴퓨터",127.251311141338,"경기 광주시 통미로 88",09:00-18:00,,99,일요일,12739,f5eb6810d6bc432baf9c420799f56e41.png,K.com,01,,280,"무상수리 및  리뉴얼 pc 지원",37.4168715185548,"결식아동,독거노인","아이 본인만","무상수리 및  리뉴얼 pc 지원"
경기,99,"01,02","1층 브리드로스터스 카페",127.237687035704,"경기 광주시 회안대로 599","평일 am9 - pm9 / 일 am12 - pm7",,01,,12748,1e2fe488ba4d40f6aadf485380a09268.jpg,브리드로스터스,02,,230,음료,37.406415544285,"결식아동,독거노인","동반 1인",음료
경기,02,01,"1012호 올리브(창고)",127.141579707759,"경기 구리시 건원대로34번길 27","평일  am 11:00~ pm 19:00",,03,"토,일 휴무",11921,15b3d6f3e0574f089ac4bb374ac55d42.jpeg,"Olive 올리브",01,,267,,37.6048239320715,결식아동,"아이 본인만",
경기,01,01,파스타아미고,127.149014344669,"경기 구리시 벌말로70번길 67",11:00~21:00,,01,"평일 15:20~16:50 (브레이크타임)",11960,NULL,파스타아미고,02,,47,,37.5853554501967,결식아동,"동반 1인",
경기,99,"01,02","유월의정원 꽃집",126.935691175457,"경기 군포시 곡란로8번길 6",11:00~20:00(토요일~18:00),,03,"일요일 휴무",15801,NULL,"유월의 정원",01,,618,꽃다발,37.3727839156733,"결식아동,독거노인","아이 본인만",꽃다발
경기,01,01,"1층 프랑킨숯불양념구이치킨",126.942335108335,"경기 군포시 번영로 602",오전11시~새벽2시,,01,,15831,c9f6eff167ed48dba21a1520239773f6.jpg,프랑킨숯불양념구이치킨,01,,681,,37.36278225646,결식아동,"아이 본인만",
경기,02,"01,99",105-1호,126.929994984358,"경기 군포시 산본천로 56",8:30~19:30,,01,,15865,NULL,테그42,01,,108,,37.3604094996489,"결식아동,","아이 본인만",
경기,99,01,"3층 싸커코어",126.706635940801,"경기 김포시 금포로 1117-20",12:00~24:00,,02,법정공휴일,10092,fdef4ed80904467ba4cfd5bac457652e.jpg,싸커코어,01,,172,축구교육지도,37.6452919618659,결식아동,"아이 본인만",축구교육지도
경기,01,01,"1층 128호 직구삼",126.670655365857,"경기 김포시 김포한강1로78번길 7","오전11시 ~ 오후11시",,01,없음,10079,25ca1244180a4fe9aeb66dcd766c6724.jpeg,"직구삼 김포장기점",02,,353,,37.6448697674168,결식아동,"동반 1인",
경기,01,01,106호몽쁘띠,126.66292295797,"경기 김포시 김포한강2로 262",오전10.30~오후7시,,01,"매즌 토.일.공휴일",10082,dc45dc6814d74c4c8fcfc325bb3755c4.jpg,몽쁘띠,02,,72,,37.6481829943546,결식아동,"동반 1인",
경기,99,01,"라베니체마치에비뉴2차 1층 105호",126.679609963561,"경기 김포시 김포한강2로23번길 72","평일 17:00~24:00  주말 12:00~24:00",,01,"주말 15:00~17:00 휴무 매주 월요일휴무",10090,5678e5fdac954d6cbaca53e73295c28c.jpeg,두리상회,02,,816,파스타&피자,37.640186350987,결식아동,"동반 1인",파스타&피자
경기,99,01,,126.64385642797,"경기 김포시 김포한강8로 169",11:30~22:00,,01,15:00~17:30,10068,b319082051334b8a9832e20584518fd8.jpg,스시호세,01,,713,초밥,37.6376145231438,결식아동,"아이 본인만",초밥
경기,01,01,"1층 피자이탈리 구래점",126.623942396124,"경기 김포시 김포한강9로115번길 8-13","11:00~익일 1:30",,01,"둘째 넷째 월요일",10071,NULL,"피자이탈리 구래점",01,,473,,37.6478628162202,결식아동,"아이 본인만",
경기,99,02,"415호 카페 페브",126.625043944901,"경기 김포시 김포한강9로75번길 190",11:30~20:30,,01,"매주 화요일",10071,2ef07bd5201a47ff933e81a1d1e8d2be.jpg,페브,99,"아이 본인 + 형제 자매 1인",158,"디저트 1개 + 음료 1잔",37.6450383303262,독거노인,"아이 본인 + 형제 자매 1인","디저트 1개 + 음료 1잔"
경기,99,,"101호 ",126.628700136149,"경기 김포시 양촌읍 양곡2로60번길 26",10-4,,01,공휴일,10060,74637ce6e83449349bcc940a28ea95a6.jpeg,마음드린케이크,01,,55,생일케이크,37.6566101651142,Nan,"아이 본인만",생일케이크
경기,01,01,"홍익돈까스 김포점",126.678513303387,"경기 김포시 운양동 725-10",11시30분~9시30분,,99,15시~17시,10072,b026569a176349a19cfcad58c6c388d2.jpg,"홍익돈까스 김포점",01,,937,,37.6588543682438,결식아동,"아이 본인만",
경기,01,01,1층,126.671043391171,"경기 김포시 장기동 1394","11시30분 ~ 23시 50분",,01,없음,10079,33a528c2cf9443d381f07fe2102350ad.jpeg,"족발야시장 김포장기점",02,,427,,37.6444456774601,결식아동,"동반 1인",
경기,01,"01,02","1층 나란나란",126.670771218306,"경기 김포시 장기동 1419",10시~22시,,01,"월요일 휴무",10079,276025afdb8a4bea960eb93447b3bc45.jpg,나란나란,03,,294,,37.6438312605827,"결식아동,독거노인","동반 2인",
경기,01,01,"1층 이촌옥2nd",126.673758182157,"경기 김포시 장기동 2054-2",11시30분~21시,,01,"주중 오후3시~5시 (브레이크타임)",10088,5f500b4085834363b65c6058b3d129f2.jpg,"이촌옥 2nd",02,,148,,37.6395374655707,결식아동,"동반 1인",
경기,02,01,김포풍무홈플2층,126.724122002202,"경기 김포시 풍무로 167","오전10시~오후10 시",,99,2째4째수요일,10117,16a334a8471f448f8dc652ad7dcef7f3.jpg,인스타일,01,,943,,37.6099638622048,결식아동,"아이 본인만",
경기,01,01,"금강리체빌딩 122호",126.724400238345,"경기 김포시 풍무로146번길 18","10:30 ~  21:00",,01,,10113,NULL,"미스터빠삭 김포풍무점",02,,208,,37.6074866183958,결식아동,"동반 1인",
경기,,,나비야,126.632250940758,"경기 김포시 하성면 월하로705번길 35-33",,,01,,10011,NULL,"주식회사 나비야",,,490,,37.7112925244262,Nan,Nan,
경기,01,01,1층,127.166019766257,"경기 남양주시 다산중앙로82번안길 131-70",10~19,,02,,12249,a080c800348f4f079ff12a28f5dcca2e.jpeg,"아르떼칠드런 다산점",01,,876,,37.6129780132879,결식아동,"아이 본인만",
경기,01,,"동대문엽기떡볶이 별내갈매점",127.117334956505,"경기 남양주시 별내3로 25","오전11시~ 오후10시45분",,01,연중무휴,12110,0f1b85d6912442c5afad29e4f9647b2c.jpg,"동대문엽기떡볶이 별내갈매점",99,결식아동가족,517,,37.6445055581596,Nan,결식아동가족,
경기,01,01,"1층 홍콩반점",127.122643965231,"경기 남양주시 별내동 1024-3",11시~9시,,01,없음,12112,cdc6c85186ef4b0997a1ed61702f1a21.jpg,홍콩반점남양주별내점,02,,233,,37.6467490129238,결식아동,"동반 1인",
경기,99,01,"4층 403호",127.119183519167,"경기 남양주시 별내면 청학로68번길 3",12-21,,01,월요일,12084,44b452f9a2df431a9ad27ecda518b8b6.jpeg,키즈팡팡,01,,577,"식사나 과자 음료 놀이시설",37.7076795193233,결식아동,"아이 본인만","식사나 과자 음료 놀이시설"
경기,99,"01,99",꼬꼬스토리,127.117421738714,"경기 남양주시 별내면 청학로92번길 29",오전11시~오후10시,군인,01,"매주 수요일",12080,29196cd0b5eb46bb91c77934240b087e.jpg,꼬꼬스토리,01,,422,컵강정,37.7108146029298,"결식아동,군인","아이 본인만",컵강정
경기,01,01,"로뎀타워 109호",127.125385929595,"경기 남양주시 별내중앙로 34","오전 11시 ~ 오후 8시",,01,"브레이크타임 3시~5시 / 휴무일 (일요일)",12113,f2f8b853b42942058b33a7d490f8fc86.jpg,소름돈냉,02,,286,,37.6461711231057,결식아동,"동반 1인",
경기,02,01,"로뎀타워 115 송쿡",127.125385929595,"경기 남양주시 별내중앙로 34",오전11-오후8시50분,,01,"매주 화, 평일 오후 2시30분-5시",12113,301d415db4604f89b63e8d485e411e42.jpg,송쿡,02,,276,,37.6461711231057,결식아동,"동반 1인",
경기,99,"01,99",가온PC,127.210939305856,"경기 남양주시 와부읍 석실로 471-4",10:00~18:00,기초수급자,99,국가공휴일,12201,NULL,가온정보통신,01,,375,컴퓨터수리,37.6099047203913,"결식아동,기초수급자","아이 본인만",컴퓨터수리
경기,99,01,다산종합물류,127.184639161277,"경기 남양주시 진건읍 사릉로 335-16","오전 9시~오후6시(점심시간12시~1시)",,03,"주말 및 공휴일, 점심시간",12140,cce5333f2f534403b55ed0005e73fedc.jpg,"주식회사 다산글로벌",02,,585,"핫팩, 손소독제",37.652385996723,결식아동,"동반 1인","핫팩, 손소독제"
경기,,"01,02",303동201호,127.202178070809,"경기 남양주시 진접읍 부평로48번길 13",3시-10시,,02,,12022,9306cb9a0cab435187987d4959b1b555.jpg,"정은희 개인과외",01,,799,,37.739952702503,"결식아동,독거노인","아이 본인만",
경기,99,01,"장현프라자 220호",127.180891133907,"경기 남양주시 진접읍 장현로 77","오전9시-오후6시, 주말 오전9시-오후1시",,03,"공휴일, 토요일 오후",12014,e35102a52e4a4ec49d6c75d0bc1fc899.jpg,한빛안경원,01,,689,"기본 안경테와 기본 안경렌즈",37.7176159370173,결식아동,"아이 본인만","기본 안경테와 기본 안경렌즈"
경기,99,01,"108호 호치킨 진접역점(삼성프라자)",127.20231797925,"경기 남양주시 진접읍 해밀예당1로 219",14:00~23:30,,01,,12054,a256304ddf754c829750eabb3a25eb2e.jpg,"호치킨 진접역점",01,,112,"치킨 단품메뉴",37.7205719788004,결식아동,"아이 본인만","치킨 단품메뉴"
경기,99,"01,02","보성빌딩 1층 짜글이 잘하는집 ",127.145767491489,"경기 남양주시 퇴계원읍 퇴계원리 44-28","월,화,수,목,금,토,일 아침10시~밤12시",,01,없음,12115,cfd6c76c663d430e9794fa213054616f.jpeg,"짜글이 잘하는집 ",02,,195,"돼지짜글이 ",37.659452321565,"결식아동,독거노인","동반 1인","돼지짜글이 "
경기,99,01,"1층 식빵의품격",127.237778753829,"경기 남양주시 평내동 604-5","10:00~8:30  당일빵소진시 조기마감",,01,일요일.국가공휴일,12226,f0f9962ac0d249f2b906771e6dc9f2d8.jpg,식빵의품격,01,,607,"모든 식빵종류",37.6426277384569,결식아동,"아이 본인만","모든 식빵종류"
경기,,,"1층 일파스토",127.248055984654,"경기 남양주시 호평로68번길 5",,,01,,12151,NULL,일파스토,,,104,,37.6558108164445,Nan,Nan,
경기,01,"01,99","1층 석관동떡볶이",127.054637332234,"경기 동두천시 동두천로 115",11:00~23:00,"g-dream 카드 소지자",01,14:30~15:30,11350,f7b801c1b86a4feba8e0fa4456837417.jpg,석관동떡볶이동두천점,02,,663,,37.8917054967786,"결식아동,g-dream 카드 소지자","동반 1인",
경기,01,01,"1층 정씨함박",127.052545770373,"경기 동두천시 중앙로33번길 99",11시~9시,,01,매주월요일,11354,43f04ba68e974e56a24e637e697ae3a2.jpg,"정씨함박 동두천점",02,,647,,37.8818373877742,결식아동,"동반 1인",
경기,99,01,청년다방,127.055884686401,"경기 동두천시 지행동 738-9",AM11:00~PM9:20,,01,연중무휴,11356,NULL,"청년다방 동두천지행점",01,,395,"주류제외 1만원미만",37.8894361485252,결식아동,"아이 본인만","주류제외 1만원미만"
경기,01,01,"1층 거기",126.769882168998,"경기 부천시 경인로134번길 52",낮12시~밤12시,,01,없음,14726,2ab654c673ba4a24bee166b2661423e1.jpg,거기,02,,608,,37.4817759981478,결식아동,"동반 1인",
경기,99,"01,02","우성테크노파크1 323호",126.825246287656,"경기 부천시 부광로 220",09:00-18:00,,99,11:30-13:30,14786,NULL,썸듀,02,,302,"생필품, 생활용품, 밀키트(계획중)",37.4676254551364,"결식아동,독거노인","동반 1인","생필품, 생활용품, 밀키트(계획중)"
경기,02,99,1층,126.812198718986,"경기 부천시 부일로 743",,,01,,14670,NULL,"모두밀 부천직영점",99,,326,,37.4862683863117,,,
경기,,,2층,126.79991468579,"경기 부천시 삼작로346번길 4",,,02,,14462,NULL,아이탑컴퓨터학원,,,39,,37.5197126000705,Nan,Nan,
경기,99,01,"103호 다비치안경원 부천상동역점 ",126.753163465931,"경기 부천시 상동로 78",10:00~21:00,,03,"설,추석 당일 휴무",14545,4cee5ee2cda94f489608c0fe294e6033.jpg,"다비치안경 부천상동역점",99,"어려운가정,가족모두혜택을드리고싶습니다",858,"안경 10만원지원금액",37.5040461821138,결식아동,"어려운가정,가족모두혜택을드리고싶습니다","안경 10만원지원금액"
경기,99,,"1층  치킨선생/을찌로국물떡볶이  ",126.802329435599,"경기 부천시 소안로 34",12시~02시,,01,연중무휴,14699,0f15af08a7114a2e99e16966e08b6728.jpg,"치킨선생/을찌로국물떡볶이 부천소사점",01,,465,"크리스피 1마리  또는 을찌로떡볶이 ",37.4776712713495,Nan,"아이 본인만","크리스피 1마리  또는 을찌로떡볶이 "
경기,01,"01,02","1층 소율미용실",126.769861252946,"경기 부천시 송내동 588-3",오전10시반~오후8시,,03,일요일,14726,87668ac9322849b48ecbb168ce1a3393.jpg,소율,99,"미리예약하시면 동반2인까지가능해요",980,,37.4817758673083,"결식아동,독거노인","미리예약하시면 동반2인까지가능해요",
경기,01,01,"1층 떡순튀",126.774387817809,"경기 부천시 심곡동 344-7",11시~23시,,01,수요일(월4회),14617,745054b7fa454d2b82767a5d3bb5fa32.jpg,떡순튀,01,,456,,37.4888010057869,결식아동,"아이 본인만",
경기,99,01,"후문상가 2층 카페지향",126.766821007138,"경기 부천시 약대로 20","평일 11:00-18:00",,01,"일,월,화 휴무 ",14514,4a84324b7a8e48aba8ce259fea74307b.jpeg,카페지향,01,,111,"음료1잔,케이크 제외한 디저트 1개",37.5123300010186,결식아동,"아이 본인만","음료1잔,케이크 제외한 디저트 1개"
경기,01,01,"상가 202호 국수나무",126.798786996387,"경기 부천시 은성로67번길 12",10:00-20:00,,01,"매주 일요일",14700,27c61361b33f45a280855e100115c427.jpeg,"국수나무 부천소사점",02,,526,,37.4754596237148,결식아동,"동반 1인",
경기,99,01,"2층 허지스헤어 미금점 ",127.107750226269,"경기 성남시 분당구 돌마로 52",10:00~20:00,,03,"공휴일,주말제외.카카오톡플러스친구or네이버 예약문의",13630,d3512e8722044679b3be76f513454671.jpg,"아트테라피 허지스헤어 ",01,,583,"아동 및 학생커트",37.3496809825845,결식아동,"아이 본인만","아동 및 학생커트"
경기,01,01,"1층 처갓집양념치킨동판교점",127.114873987751,"경기 성남시 분당구 동판교로52번길 9-3",오후1시‐새벽1시,,01,"첫째,셋째 월요일",13535,NULL,처갓집양념치킨동판교점,99,"치킨한마리 무료 증정",1066,,37.3873153506466,결식아동,"치킨한마리 무료 증정",
경기,01,01,"서현동, 1층 중화",127.141605441038,"경기 성남시 분당구 불정로420번길 17-1","11:30 ~ 21:00",,99,"15:00 ~ 17:00 , 매주 화요일",13578,3e7ebd76b8e0410fad5768ee7ca9a97d.jpg,중화,02,,438,,37.3755440438769,결식아동,"동반 1인",
경기,99,01,"1층 105호 팔팔뼈찜",127.109400225772,"경기 성남시 분당구 성남대로 52",오전11시~오후10시,,01,"매주일요일휴무, 평일 2시~4시45분까지 브레이크타임",13637,2e855f2076a943b4a59033c1d6a538f9.jpg,팔팔뼈찜,01,,640,뼈해장국,37.3404548197093,결식아동,"아이 본인만",뼈해장국
경기,99,01,현대아리온1층,127.110467404917,"경기 성남시 분당구 성남대로172번길 12",오후3시30분~저녁6시,,01,일요일,13618,NULL,제일치킨,01,,206,치킨.음료수,37.3509801924295,결식아동,"아이 본인만",치킨.음료수
경기,99,01,"1층 111호(정자동, 백궁프라자)",127.106307826836,"경기 성남시 분당구 성남대로331번길 13","오후13시부터 21시까지",,01,오후15시~16시30분,13558,aa83f2533058459cacc2d648162ba2a6.jpg,"비스트로 분당김치찜 본점",02,,144,"1인 식사류 전품목",37.3652861915453,결식아동,"동반 1인","1인 식사류 전품목"
경기,01,01,"1층 ",127.107093767636,"경기 성남시 분당구 성남대로331번길 9-13",11:30~24:00,,99,"매주 일요일",13558,025551e3de414f32ba03a16f2459df4d.jpg,미담,99,,830,,37.3645066353735,결식아동,,
경기,01,01,"601동 청구상가 1층 104호",127.116702632478,"경기 성남시 분당구 수내동 32","16시 ~ 23시",,01,"설날, 추석 휴무",13597,c9cb4f872c364b2ab65f6e64799f9341.jpg,수내통닭,02,,1040,,37.3763240445257,결식아동,"동반 1인",
경기,99,01,"1층 피자나라치킨공주",127.135191979174,"경기 성남시 분당구 야탑동 286-6","11시30분~23시 30분",,01,"매주 화요일",13504,792ad8c800354cdcb7bbeb81a90e36cf.jpg,피자나라치킨공주,01,,1035,피자,37.4124946982745,결식아동,"아이 본인만",피자
경기,01,01,"H스퀘어 S동  1층 116호",127.108698530906,"경기 성남시 분당구 판교역로 231",,,01,,13494,NULL,이디야커피판교테크노밸리점,02,,809,,37.4013348710874,결식아동,"동반 1인",
경기,02,"01,99",1층,127.12755385748,"경기 성남시 수정구 복정로 32",오전11~오후8시,"미혼모 ",99,매주화요일,13119,df87220ab0ea41a49724dbf48189a0de.jpg,"헤어잇다 ",01,,791,,37.4557595031734,"결식아동,미혼모 ","아이 본인만",
경기,99,99,"푸르지오4B-110호 ",127.141500232126,"경기 성남시 수정구 위례광장로 36","오전 4시 오전 11시까지",,99,없음,13646,cba1c616eb774d93a787bb22b05e4c58.png,맘마찬송파위례점,01,,207,"생후6갤~15갤까지 먹는 수제이유식입",37.4684305863356,,"아이 본인만","생후6갤~15갤까지 먹는 수제이유식입"
경기,02,01,"1층 피자나라 치킨공주 태평점",127.139528076374,"경기 성남시 수정구 태평동 2454",낮12시~밤11시30분까지,,01,매장으로전화,13277,23d26a0442c94e1984abbb2f07e27e01.jpg,"피자나라치킨공주 태평점",01,,637,,37.4490104522107,결식아동,"아이 본인만",
경기,99,01,"102호 더맛구이구이쪽갈비일월본점",126.974215465686,"경기 수원시 권선구 구운동 911-1","16시 ~ 24시",,01,없음,16413,bd2ff638796942f5bb32acd9f72a1c66.png,더맛구이구이쪽갈비일월본점,02,,540,"쪽갈비 1kg",37.283348780246,결식아동,"동반 1인","쪽갈비 1kg"
경기,01,01,"건우프라자 201,202호",126.942217777327,"경기 수원시 권선구 금곡동 1089","16시 ~ 24시",,01,없음,16388,a2b4958015b6495ea113eae7316dc980.jpg,숯닭무,01,,538,,37.2727942375857,결식아동,"아이 본인만",
경기,99,"01,02","세종타운201호 보그헤어호매실점",126.953342371304,"경기 수원시 권선구 금곡로 204",오전10시30분~오후8시,,99,1시~2시,16397,c76743776940494ab0a69a4c7cdbd0c0.png,보그헤어서수원호매실점,01,,293,미용서비스,37.2737062223236,"결식아동,독거노인","아이 본인만",미용서비스
경기,01,01,"애비뉴8번가 105호",126.952983899504,"경기 수원시 권선구 금곡로197번길 18-24","오전 11시 ~ 오후 11시",,01,없음,16391,108676c6d98a4d7382e3d0dd7883d942.png,"돌배기집 수원호매실점",01,,73,,37.2746751495956,결식아동,"아이 본인만",
경기,01,01,"엘지종합상가1층127호 현이네 ",126.936691828467,"경기 수원시 권선구 금곡로73번길 33",11시30분~8시,,01,"토요일,일요일.공유일",16383,310de657643b43e68aa56192eea3b939.jpg,현이네,01,,605,,37.2742921846415,결식아동,"아이 본인만",
경기,01,01,"2층 갤러리베이커리",127.034690950669,"경기 수원시 권선구 동수원로 232","10시 ~ 17시",,01,"주말 휴무",16553,7613f3ce97c540a0b0343fc645801f74.jpg,갤러리베이커리,01,,688,,37.2502595331007,결식아동,"아이 본인만",
경기,02,01,"1층 코히고항",127.021111735709,"경기 수원시 권선구 세류동 1077-4","11:00~9:00 (포장 밤12시까지)",,01,"정기휴무일 없음 (설날2일,추석2일,신정 휴무) ",16580,ea1e253d87cc4198b776de8090e59bfb.jpg,코히고항,01,,22,,37.2560855481967,결식아동,"아이 본인만",
경기,99,01,"2층 스트릿츄러스 롯데몰수원점",126.997293771381,"경기 수원시 권선구 세화로 134",10:30~22:00,,01,없음,16621,NULL,"스트릿츄러스 롯데몰수원점",02,,94,"츄러스1+음료 또는 아이스크림",37.2641779524716,결식아동,"동반 1인","츄러스1+음료 또는 아이스크림"
경기,02,01,1층,126.978042122999,"경기 수원시 권선구 오목천동 775","오전 11시-오후6시",,01,"일요일, 공휴일 휴무",16640,ad54b7ed7d6f4dc9b9b667318b1b136a.jpeg,카페플러스셀,01,,784,,37.2325092773828,결식아동,"아이 본인만",
경기,01,01,메밀정원,126.943382436327,"경기 수원시 권선구 호매실동 840-3",11시부터21시까지,,01,"구정,추석당일만",16386,a3892e1df7af4410a9f9c5d49851908e.jpeg,메밀정원,02,,361,,37.2638086243528,결식아동,"동반 1인",
경기,01,01,"103호 프랑킨숯불양념구이치킨",127.053211983716,"경기 수원시 영통구 망포동 11-12",11시~2시,,01,x,16681,010892741b8b4cdeb2c5ede8b71ffa35.jpg,프랑킨숯불양념구이치킨,01,,697,,37.2475270893663,결식아동,"아이 본인만",
경기,01,01,"104호 리틀꼬마김밥 원천점",127.058506368808,"경기 수원시 영통구 매영로 143",07:00-22:00,,01,연중무휴,16519,NULL,"리틀꼬마김밥 원천점",02,,1014,,37.2666227410234,결식아동,"동반 1인",
경기,99,01,"상가동 1층 117호(파파후라이돈)",127.050043481678,"경기 수원시 영통구 매영로 84",오후1시~밤11시,,01,"매월 넷째주 월요일",16542,b712dd0fa6f04c51ae2ddd65288aa290.jpg,파파후라이돈,01,,852,"오리지널후라이돈 1박스",37.2681997491564,결식아동,"아이 본인만","오리지널후라이돈 1박스"
경기,01,"01,02",뉴욕야시장,127.045285366058,"경기 수원시 영통구 매탄로108번길 52",16:00-02:00,,01,일요일,16545,dd6eca14863f41909a974db6bffb3b30.jpg,뉴욕야시장영통구청점,03,,798,,37.2594320020083,"결식아동,독거노인","동반 2인",
경기,99,"01,02","1층, 보배반점 수원영통점",127.077343762163,"경기 수원시 영통구 반달로 104",11:00~22:00,,01,,16705,88861252795e49179130ce72be6a2f58.jpeg,"보배반점 수원영통점",02,,586,식사류,37.2527912914214,"결식아동,독거노인","동반 1인",식사류
경기,01,01,"SK뷰레이크타워 B120호",127.060178440172,"경기 수원시 영통구 법조로 25","오전 9시-오후 9시",,01,,16514,5395ac5286f94316a62e1b2eb17a5f8e.jpg,19T광교SK레이크점,03,,560,,37.2874808899042,결식아동,"동반 2인",
경기,02,01,"117호 츄카롱",127.074491002062,"경기 수원시 영통구 봉영로 1606","오전11시 ~ 오후 10시",,01,"매주 월요일",16704,NULL,"츄카롱 수원점",01,,292,,37.2538686061108,결식아동,"아이 본인만",
경기,99,"01,02","1층 102호",127.060225301978,"경기 수원시 영통구 신원로 257","평일 10시-19시 토요일 10시-17시",,01,"일요일 ,공휴일",16676,73aadb73ec934b69ac3492a8286fb9fa.png,가나쿠키,01,,963,음료+쿠키,37.2585420529886,"결식아동,독거노인","아이 본인만",음료+쿠키
경기,01,01,108호,127.076022520119,"경기 수원시 영통구 영통동 1023-1",11:00-21:00,,01,명절당일.다음날,16702,13eefa405ef1424c8385fc67004751b0.jpeg,"키와마루아지 경희대점",02,,248,,37.2484662348507,결식아동,"동반 1인",
경기,02,01,"2층 부함식당",127.058585899301,"경기 수원시 영통구 영통로214번길 25","오전11:00 - 오전 01시",,01,없음,16698,NULL,"부함식당 수원망포역점",02,,291,,37.2465987291718,결식아동,"동반 1인",
경기,99,01,"1층 꿀가네 낙곱새",126.997840994799,"경기 수원시 장안구 파장동 595","오전11:30 새벽2시까지",,01,1~5시,16351,b782d631e57a4ede8df4e6bdae44e3ce.jpg,꿀가네낙곱새북수원점,01,,1083,"참치마요 주먹밥 계란찜",37.307503154848,결식아동,"아이 본인만","참치마요 주먹밥 계란찜"
경기,01,01,"1층 도새기막창",126.99880149748,"경기 수원시 팔달구 동말로 43",17-24,,01,일요일,16443,NULL,도새기막창,02,,661,,37.2787626780028,결식아동,"동반 1인",
경기,99,01,"대학빌딩 다비치안경 아주대삼거리점",127.043825034923,"경기 수원시 팔달구 아주로 3","오전 10시 ~ 밤 9시까지",,99,"명절 당일만 휴무",16498,64791668c4b040b19afd7c0c058e0302.png,"다비치안경 아주대삼거리점",01,,758,"안경테,안경렌즈,10만원이내 제공",37.2751202264477,결식아동,"아이 본인만","안경테,안경렌즈,10만원이내 제공"
경기,99,"01,02","1층 상가",127.028363703417,"경기 수원시 팔달구 인계동 1024-3",9:30-21:30,,01,"매주 월요일 브레이크타임 15:00-16:00",16489,702db00b6557409f86df2efd4b74997b.jpeg,"인생감자탕 수원인계점",02,,752,"묵은지. 우거지. 해장국",37.2659620729497,"결식아동,독거노인","동반 1인","묵은지. 우거지. 해장국"
경기,99,01,1층,127.034352036667,"경기 수원시 팔달구 인계동 1119-8",오전11시부터새벽3시,,01,없음,16488,faf1c7277b5342ff9fce983f590890e8.jpg,김천재의육회반한연어,02,,1019,육회비빔밥.연어회덥밥.연어장덮밥.참치,37.2642071493056,결식아동,"동반 1인",육회비빔밥.연어회덥밥.연어장덮밥.참치
경기,01,01,"1층 ",127.027634287852,"경기 수원시 팔달구 인계동 211-6",오전11시~새벽4시,,01,연중무휴,16471,55f53d5fac3747e3ba81a866fb9350df.jpg,"프랑킨숯불양념구이치킨 본점",02,,678,,37.2761526595032,결식아동,"동반 1인",
경기,01,01,"1층 지코바치킨 (대로변)",127.024791068534,"경기 수원시 팔달구 인계동 982-11",09:00-(익일)04:00,,01,,16476,NULL,"지코바치킨 인계1호점",01,,685,,37.2675035662103,결식아동,"아이 본인만",
경기,01,99,"달보드레유기농제빵소 ",127.014693125277,"경기 수원시 팔달구 행궁로 24",10:00-20:00,"소방관,경찰관.군인 전품목  10% ",01,"매주월요일(공휴일이면 정상근무후 변경될수 있음)",16260,3148533fdcc245399f5242f90e4a8397.jpg,달보드레유기농제빵소,99,"결식아동 무료",1051,,37.2804841097543,"소방관,경찰관.군인 전품목  10% ","결식아동 무료",
경기,01,01,"1층 102호 그렇게 함박이 된다",127.015052136803,"경기 수원시 팔달구 향교로 138","11:00~21:00(주문마감 20:00)",,01,"15:00~16:30 (주문마감 14:00)",16463,8db9a5c15e7f4d1c9c8075374e91fe6d.jpg,그렇게함박이된다,02,,46,,37.2730348047593,결식아동,"동반 1인",
경기,01,"01,02","월드프라자1층 107.108호 핵밥",126.810707325793,"경기 시흥시 능곡동 744",11:00~21:00,,01,연중무휴,14995,0efca08580114dc29b38eb3ecccfe9fa.jpg,핵밥시흥능곡점,02,,1009,,37.3686613544902,"결식아동,독거노인","동반 1인",
경기,01,"01,02,99",바나나래빗,126.793152634843,"경기 시흥시 대은로 10","11시 - 24시 (거리두기 단계따라 다름)","경찰, 군인",01,"월 1회",14919,a8beebd29e834469b5f5a2359caa66b0.jpg,바나나래빗,02,,97,,37.4398182409987,"결식아동,독거노인,경찰, 군인","동반 1인",
경기,99,99,"202호 스페로수학학원",126.734576357199,"경기 시흥시 배곧4로 103",,"한부모/기초생활수급/차상위계층 가정",02,,15010,4833e722b692462992ecec3dc59ea193.jpg,스페로수학학원,01,,863,"초,중등 수학교습비",37.3738595210945,"한부모/기초생활수급/차상위계층 가정","아이 본인만","초,중등 수학교습비"
경기,99,,"1층 107호",126.73340139468,"경기 시흥시 배곧4로 87",09:00~20:30,,01,"둘째 넷째 화요일",15010,045d68010b684af391ac4d95e07480ca.jpeg,테그42배곧신도시점,01,,121,"토스트1, 음료1 제공",37.374597699316,Nan,"아이 본인만","토스트1, 음료1 제공"
경기,99,01,"(정왕동주차빌딩) 1층 108호",126.734142830934,"경기 시흥시 서촌상가3길 7-13",09:00~22:00,,01,"설날, 추석연휴",15036,f548d6680c934a3784d33e767bc2857d.jpg,24시수육국밥시화점,01,,305,"수육국밥, 순대국밥",37.3463373718655,결식아동,"아이 본인만","수육국밥, 순대국밥"
경기,99,01,고구려짬뽕,126.774803803273,"경기 시흥시 수인로 3472-22",10:30-20:00,,01,매주월요일,14903,NULL,고구려짬뽕집,02,,345,식사류,37.443995771538,결식아동,"동반 1인",식사류
경기,01,01,세븐일레븐건물,126.796657611181,"경기 시흥시 장현서3길 12",24시간,,01,연중무휴,14996,999d5b1f152546a28933b65a524e9a8b.jpg,"담꾹 시흥장현점",01,,621,,37.3731239645626,결식아동,"아이 본인만",
경기,01,01,"1층 프랑킨치킨집",126.74362792498,"경기 시흥시 정왕동 1809-1",12~01시,,01,월요일,15054,NULL,프랑킨숯불양념구이치킨,01,,682,,37.3498502371727,결식아동,"아이 본인만",
경기,99,"01,02","3층 베스트탁구교실",126.722374010577,"경기 시흥시 중심상가로 38",09~24,,99,없음,15040,NULL,베스트탁구교실,02,,825,단식/복식,37.3526669890805,"결식아동,독거노인","동반 1인",단식/복식
경기,02,99,406호,126.785268524363,"경기 시흥시 진말로9번길 2",14시~22시,,02,토.일,15002,NULL,해법장곡이지학원,01,,231,,37.3784640235878,,"아이 본인만",
경기,01,01,육장갈비,126.832882482976,"경기 안산시 단원구 고잔2길 16",오전11시~오후11시,,01,없음,15359,c53ec319379c441da8b0e7ee7499e152.jpg,육장갈비,02,,471,,37.3176332677802,결식아동,"동반 1인",
경기,01,01,1층프랑킨숯불양념구이치킨,126.831205448673,"경기 안산시 단원구 고잔동 724",11:00~03:00,,01,연중무휴,15462,64e49043cf904ec99a5d9f6208289a9d.jpg,프랑킨숯불양념구이치킨,01,,677,,37.3147200097692,결식아동,"아이 본인만",
경기,01,01,"1층 116호 국수타래",126.824771730105,"경기 안산시 단원구 광덕4로 112","월~금 10시~20시 토 일 공휴일 휴무",,01,"휴무시간 없음 ",15458,2ef4dfd6873d4234b01778e512bea077.jpg,국수타래,02,,190,,37.3151467580377,결식아동,"동반 1인",
경기,01,01,"천혜중앙 126호 히또시",126.839878710767,"경기 안산시 단원구 광덕4로 246","평일 11시30부터 21시까지 토요일 12시부터 21시",,01,"일요일  국가 공휴일",15464,a8dd33a30d0f4fedbfcf5d2657a76722.jpg,히또시,99,"아이들과 부모까지",627,,37.3143537193383,결식아동,"아이들과 부모까지",
경기,01,01,"B동 112호 뱃살도둑 안산고잔점",126.828951250039,"경기 안산시 단원구 광덕대로 141","08:00 - 02:00",,01,연중무휴,15476,NULL,"뱃살도둑 안산고잔점",99,가족,333,,37.3090945924351,결식아동,가족,
경기,01,01,"1층 105호 프레드피자 ",126.831212824901,"경기 안산시 단원구 광덕대로 206",오전11시~새벽3시20분,,01,연중무휴,15462,49a4afd2d40a464b8d7d4d2d10a2c190.png,"프레드피자 안산1호점 ",01,,572,,37.3147005579691,결식아동,"아이 본인만",
경기,99,01,"108호 시작이반찬",126.827687734987,"경기 안산시 단원구 광덕서로 100",11:00~20:00,,01,매주일요일,15461,2999fc93428f43348eee3a57190617b7.jpg,시작이반찬,01,,482,"반찬류 중 4종 선택",37.3135472005545,결식아동,"아이 본인만","반찬류 중 4종 선택"
경기,99,"01,02",2층,126.815521749447,"경기 안산시 단원구 달미로 100","10:00 ~ 21:00",,01,,15216,8253ba3a622c404f85bce5b29a296790.jpg,(주)포만푸드,02,,410,스테이크도시락,37.3446667794007,"결식아동,독거노인","동반 1인",스테이크도시락
경기,99,01,,126.80593210575,"경기 안산시 단원구 석수로 117","11:00 ~ 24:00",,99,없음,15219,11d9afad74e54a849e80dc8d9cf76a18.jpg,BBQ안산선부스마트점,01,,1036,"치킨 반마리",37.3468732827616,결식아동,"아이 본인만","치킨 반마리"
경기,01,01,"102호 ",126.807923473756,"경기 안산시 단원구 석수로 42","12시30분 ~  00시",,01,없음,15232,0d61b60a403e4fee9f821f9c2573dbd5.jpg,현일병의피자&치킨군단,01,,493,,37.3402410872478,결식아동,"아이 본인만",
경기,99,01,"114호 피자와치킨 안산1호점",126.812568129775,"경기 안산시 단원구 선부광장1로 108","오전 11시~ 오후 10시",,01,,15368,21e27a2a4610481b9ef7fa92aaba9880.jpeg,"피자와치킨 안산1호점",99,"결식아동 및  결성가정구성원",281,"더블치즈피자  및 원하는 품목",37.3332483462792,결식아동,"결식아동 및  결성가정구성원","더블치즈피자  및 원하는 품목"
경기,99,01,"109호 신참떡볶이",126.802156606391,"경기 안산시 단원구 원초로 33",오전11시~오후22시,,01,없음,15383,NULL,신참떡볶이안산원곡점,01,,226,나홀로세트,37.3287231786492,결식아동,"아이 본인만",나홀로세트
경기,99,01,"다비치안경 안산중앙역사거리점",126.836398558279,"경기 안산시 단원구 중앙대로 899","10시 ~ 9시",,03,"연중무휴 / 명절당일만 휴업",15360,4dbc6615faa5417d9585dc85ec60fd06.jpg,"다비치안경 안산중앙역사거리점",01,,994,"눈에 편안한 안경 맞춰줄게요 : ) ",37.3172927250554,결식아동,"아이 본인만","눈에 편안한 안경 맞춰줄게요 : ) "
경기,99,"01,02","월드코아 2층 옥스포드 학생복",126.838270058955,"경기 안산시 단원구 중앙대로 915","오전 11시 - 오후 6시",,99,"매주 일요일",15361,955bae19af2b47d99858901b59f93543.jpg,"옥스포드 학생복",01,,1027,"교복 셔츠, 교복 바지",37.3171830289428,"결식아동,독거노인","아이 본인만","교복 셔츠, 교복 바지"
경기,02,,301,126.815113845871,"경기 안산시 단원구 초지로 90",2-7,,02,,15448,NULL,"맨투맨영수학원 ",01,,486,,37.3067379424123,Nan,"아이 본인만",
경기,99,01,506호,126.865090686241,"경기 안산시 상록구 본삼로 45","11/13/15/17/19시 100% 예약제",,99,"매주 일요일",15537,22958e6680b144e0bfccdade88db924d.png,홍차부부사진가게,01,,1078,"새학기용 학생증사진(8매+보정본)",37.3010966859109,결식아동,"아이 본인만","새학기용 학생증사진(8매+보정본)"
경기,99,01,101호,126.866240676249,"경기 안산시 상록구 본오로 89-1","오전11:00 ~ 익일 01:00",,01,"매주 월요일 휴무",15551,c0441ed041844d65aebe8408bfba334c.jpg,"동대문떡볶이 동떡&닭강정",02,,246,"떡볶이+치킨세트 or 떡볶이+컵밥",37.2931503089978,결식아동,"동반 1인","떡볶이+치킨세트 or 떡볶이+컵밥"
경기,02,01,앤의식탁,126.838602442834,"경기 안산시 상록구 사동 1570","평일10~10   토 11~9 일 1~9",,01,"평일 3~4  브레이크타임",15577,97bec1194c49492b8c0f3b43b73a7766.jpg,앤의식탁,02,,846,,37.3010728988685,결식아동,"동반 1인",
경기,01,"01,02","국제프라자 101호 뚜레쥬르안상록수점",126.863574915021,"경기 안산시 상록구 샘골로 190","07:30 ~ 22:00",,01,,15538,753eb7020d074a27a257a148beebd190.png,뚜레쥬르안산상록수,02,,547,,37.3007067821457,"결식아동,독거노인","동반 1인",
경기,99,"01,02","지하 1층 청년몰 숩",126.865988229129,"경기 안산시 상록구 석호로 315",12:00~19:30,,01,"매월2,4째 일요일 ,매주월",15541,1996eb34a70c4a6a8676f53a2a9163ea.jpg,숩:,02,,887,"여름방학 겨울방학동안 스테이크제공",37.2937492130573,"결식아동,독거노인","동반 1인","여름방학 겨울방학동안 스테이크제공"
경기,01,01,"다농마트 3층 톡톡청년몰 373호 ",126.844239273087,"경기 안산시 상록구 예술광장로 1",오전11시~오후8시,,01,"일,월 휴무",15288,0d0d165162e34983836353a1cc37c9aa.png,더둘베이크,02,,724,,37.3283614945831,결식아동,"동반 1인",
경기,99,"01,99","롯데마트 3층 안산무지개연합의원 ",126.846653522411,"경기 안산시 상록구 항가울로 422","10시 -21시",,99,"12시-12시30분 18시-18시30분",15299,729b4bef8f1e467bbd1e9accd448e93d.jpeg,"안산무지개연합의원 ",02,,622,"병원 방문시 병원옆 푸드코트식사제공",37.3180950426977,"결식아동,","동반 1인","병원 방문시 병원옆 푸드코트식사제공"
경기,02,01,,127.223882693,"경기 안성시 대덕면 내리 689-13",12:00~20:00,,99,매주일요일,17546,1aee9692f5b3454da9089e239b1d537c.jpg,오늘구움,01,,599,,37.0018656221074,결식아동,"아이 본인만",
경기,99,99,2층,127.244385879421,"경기 안성시 미양면 협동단지길 3","오전10시 ~ 오후5시","지역사회 비영리 단체 등",01,"오전11시:30분 ~ 13시30분",17604,9c7c41ec982d46acabde920a0ecc8992.jpg,같이행복공동체협동조합,99,"취약계층(어르신,결식아동,장애인 등)",484,"냉동도시락, 즉석도시락",36.9588536968775,"지역사회 비영리 단체 등","취약계층(어르신,결식아동,장애인 등)","냉동도시락, 즉석도시락"
경기,02,01,1층,127.254353915956,"경기 안성시 신건지동 2-9",11:00~23:00,,01,매주화요일,17573,6ff07739588e4f5882a2b9e447792052.jpg,푸드코트,01,,635,,37.0140214224996,결식아동,"아이 본인만",
경기,01,01,"폴리프라자1층 cafeOTDN",127.259358045047,"경기 안성시 아양1로 61",11시~21시,,01,매주일요일/매달첫번째토요일,17577,cc6d69edd723456399eb63ca299e88dc.jpg,카페오티디엔(cafeOTDN),02,,105,,37.007623840312,결식아동,"동반 1인",
경기,99,"01,02","107호 올곧은소반",126.962526814593,"경기 안양시 동안구 경수대로 428","평일 Am10:30~Pm8:00/토요일 ~Pm4:00",,01,"일요일 휴무",14126,0a1a138fc6f0479f8e643ba267d63ba3.jpg,올곧은소반,02,,593,"컵소반도시락 or 밑반찬3종",37.3622634561028,"결식아동,독거노인","동반 1인","컵소반도시락 or 밑반찬3종"
경기,01,"01,02","2층 레드브라운카페",126.959105683032,"경기 안양시 동안구 경수대로584번길 37","10시 부터 20시",,01,일요일,14109,df17e0686a3d41bbb978317f5a45d0cd.jpg,레드브라운호계점,01,,389,,37.3755726406981,"결식아동,독거노인","아이 본인만",
경기,02,"01,99",1층,126.969604869454,"경기 안양시 동안구 관악대로 419-1",14:00~23:00,"안양시 소방관  포장주문시 40%할인",01,휴무일없음,13939,621e0d7fa8d54af193799199d89acd7f.jpg,비비큐인덕원사랑점,01,,1071,,37.405120254148,"결식아동,안양시 소방관  포장주문시 40%할인","아이 본인만",
경기,99,01,"카페마녀 ",126.965050687306,"경기 안양시 동안구 관평로138번길 53",오후4시~11시,,01,일요일,14068,NULL,"카페마녀 ",01,,756,치킨,37.3906391266458,결식아동,"아이 본인만",치킨
경기,01,01,"1층 102호",126.963745601251,"경기 안양시 동안구 관평로69번길 29-7","오전11시 ~ 오전1시30분",,01,,14103,NULL,"프랑킨숯불양념구이치킨 안양점",01,,679,,37.3829215585742,결식아동,"아이 본인만",
경기,99,01,4층,126.975555960183,"경기 안양시 동안구 시민대로 408","11:00 ~ 22:00",,01,"15:00 ~ 17:00",14058,NULL,벨라로사,99,"매주 월요일 아이 본인만",1004,파스타,37.3963242426786,결식아동,"매주 월요일 아이 본인만",파스타
경기,99,01,"흥일빌딩 6층 다수인학원",126.960422251572,"경기 안양시 동안구 평촌대로 107",12:00~23:00,,02,없음,14099,766a83fe75914537b29092412bfde9dd.png,한원석,99,"수강을 할 학생",287,"학원 수강료 일정금액 면제",37.3815658934908,결식아동,"수강을 할 학생","학원 수강료 일정금액 면제"
경기,99,01,"백두프라자 101호 악마국수",126.954133500425,"경기 안양시 동안구 평촌대로217번길 27",11시~22시,,01,16시~17시,14072,e274dc2484ec42eeb2e8a6c7b3f2c762.jpeg,악마국수,01,,810,"Noodle, rice, side",37.3903294088302,결식아동,"아이 본인만","Noodle, rice, side"
경기,99,"01,02,99","1층 왼쪽",126.917893385045,"경기 안양시 만안구 삼덕로 78","오전11시 부터 오후 00시 까지",경찰관,01,없음,14002,NULL,힘찬뼈다귀,01,,625,"1인분 감자탕",37.3954001246572,"결식아동,독거노인,경찰관","아이 본인만","1인분 감자탕"
경기,01,"01,02","104동 127호",126.929107726972,"경기 안양시 만안구 안양로 180","오전 9시 ~ 오후 9시",,01,없음,14033,efb4708a8d7d44bcb7c27659e135fa88.jpg,"로스터리카페 쉼",01,,609,,37.390183882946,"결식아동,독거노인","아이 본인만",
경기,99,"01,02","1층 미용실",126.883583900764,"경기 안양시 만안구 오리로 58",11~6,,03,매주일요일,13976,849e475dd6fb435689a4f98c34443127.jpeg,"모결헤어팀안양점 감쌀롱",01,,518,"남자컷트 학생컷트 여학생컷트",37.4094137293598,"결식아동,독거노인","아이 본인만","남자컷트 학생컷트 여학생컷트"
경기,,,"105호 안심축산물판매점 (링크오상가",126.931147060605,"경기 안양시 만안구 태평로52번길 37",10:00~22:00,,99,연중무휴,14037,NULL,"안심축산물판매점 메가트리아점",,,755,,37.3960759716372,Nan,Nan,
경기,99,"01,02,99",아이엠피자,126.980680801458,"경기 양주시 광적면 광적로 75","오전 11시 ~ 오후 11시","굶주린 누구나",01,"매주 월요일",11420,fcb7494dbca7439ab4c35681af47c10e.jpg,아이엠피자,99,,110,피자,37.8253110817424,"결식아동,독거노인,굶주린 누구나",,피자
경기,99,01,"스카이프라자104호 또띠아를 말아줘",127.077677992073,"경기 양주시 부흥로 1932",11시~20시,,01,일요일휴무,11492,d55bae288b934af89cf0ddb5fb46b07b.jpg,"또띠아를 말아줘",02,,214,브리또세트,37.7944394057017,결식아동,"동반 1인",브리또세트
경기,01,"01,99","스카이타워 114호 부산어묵 ",127.092141347164,"경기 양주시 옥정동 963-4",09.09,"지역에 어려운이웃",01,매주화요일,11473,d47539e7c56e4897970966142012340e.jpg,"부산어묵 ",02,,447,,37.8214014328258,"결식아동,지역에 어려운이웃","동반 1인",
경기,99,"01,02","1층 더모아나",127.097178631135,"경기 양주시 옥정동로5길 32",10:00-17:00,,01,"매주 일, 월, 공휴일 휴무",11476,1f90f661d0fc4af691264a91f91b5f99.jpeg,"더 모아나",01,,1029,"샌드위치 증정 ",37.8164465360934,"결식아동,독거노인","아이 본인만","샌드위치 증정 "
경기,99,"02,99","1층 멜로우프루타",127.096957482444,"경기 양주시 옥정동로7길 40","12:00 - 22:00","공무원증 제시 시,  30% 할인",01,"매주 월요일 정기 휴무",11473,NULL,멜로우프루타,99,"아이 본인 샌드위치 + 음료  제공",503,"샌드위치 + 음료  / 30% 할인",37.8212016989849,"독거노인,공무원증 제시 시,  30% 할인","아이 본인 샌드위치 + 음료  제공","샌드위치 + 음료  / 30% 할인"
경기,99,,"M타워 3층 305호 생고기제작소",127.092795392921,"경기 양주시 회천남로 88",오후4~새벽2시,,01,없음,11473,113d689235a440ad927b21f0ca15b6ba.jpg,"생고기제작소 양주옥정점",99,"18살미만 카드소지자본인외형제자매해당",87,"소고기+삽겹살 한판+공기밥+음료",37.8185483098639,Nan,"18살미만 카드소지자본인외형제자매해당","소고기+삽겹살 한판+공기밥+음료"
경기,02,01,"104호 티니샵미니",127.506103444909,"경기 양평군 양평읍 공흥리 293-1",11-19,,99,"일요일, 공휴일",12550,569e13035a67420aa01f51ab419dd93b.jpg,"티니샵 ",01,,832,,37.4934383137145,결식아동,"아이 본인만",
경기,01,01,담꾹,127.492071327719,"경기 양평군 양평읍 양평시장길 14-3",10시~6시,,01,,12556,NULL,"담꾹 양평점",01,,1076,,37.4903580646853,결식아동,"아이 본인만",
경기,01,01,"1층 집어가 양평용문점",127.592089777599,"경기 양평군 용문면 다문북길 81","24시간 영업",,01,,12515,NULL,"집어가 양평용문점",01,,781,,37.4869298140264,결식아동,"아이 본인만",
경기,01,"01,02","단밤 1271 CAFE",127.444813957028,"경기 여주시 산북면 광여로 1271","11시~ 20시",,01,"매주 화요일 휴무",12600,f1d9b01badcb49288ec1bc1e266a8f04.jpg,단밤1271CAFE,01,,769,,37.4066680169826,"결식아동,독거노인","아이 본인만",
경기,01,01,"1층 건짱",127.635993117723,"경기 여주시 세종로 254-20",오후1:00~오후11:00,,01,"금,토,일,월 휴무",12652,71c5b7996f744d3e992260393f96882d.png,건짱,02,,455,,37.2747794825093,결식아동,"동반 1인",
경기,99,01,2층,127.636167412894,"경기 여주시 세종로79번길 7-1",낮3시~밤12시,,01,"격주 월요일",12631,64d51abb521f4613bae0195b367bfa08.jpg,자담치킨,02,,394,치킨,37.2906518925843,결식아동,"동반 1인",치킨
경기,01,01,달리는커피여주점,127.640571227491,"경기 여주시 청심로 185",오전9시~오후8시,,01,일요일정기휴무,12620,b6a8e6a762214a13bf5644d38c7d528d.jpg,달리는커피여주점,01,,811,,37.2967040961314,결식아동,"아이 본인만",
경기,02,01,"1층 114호",127.073867546513,"경기 오산시 경기대로 154",오후3시~12시,,01,매주월요일,18144,fb3df800af5647d5bb9fa32480b2dbbe.png,노랑통닭오산원동점,02,,948,,37.138493843608,결식아동,"동반 1인",
경기,,,"115호 승도리네 곱도리탕 ",127.065276594229,"경기 오산시 내삼미로79번길 46",,,01,,18114,NULL,"승도리네오산세교점 ",,,131,,37.1702357961523,Nan,Nan,
경기,99,01,"1층 장수순대국",127.075397495404,"경기 오산시 밀머리로 46",10시-22시,,01,"매주 토요일",18144,NULL,장수순대국,01,,641,"순대국밥,머리국밥",37.1376539924014,결식아동,"아이 본인만","순대국밥,머리국밥"
경기,01,01,"세마엠시티 101호 포레스티",127.04138918977,"경기 오산시 수목원로 618","오전 7시 - 오후 7시",,01,,18106,bc85d8e36f694773b4ad64d2a1ab0202.jpg,포레스티,02,,1063,,37.1867804583051,결식아동,"동반 1인",
경기,01,"01,02",1층,127.069186183211,"경기 오산시 시장길 8",11시~15시,,01,없음,18136,0be9ea6b56e1497bb743cb3ef8fd0ed6.jpg,가마솥시골전통보리밥,99,"등본상거주지동일인모두,소방관은동반2인",168,,37.1496272858114,"결식아동,독거노인","등본상거주지동일인모두,소방관은동반2인",
경기,99,01,103호,127.112484807367,"경기 용인시 기흥구 구갈로72번길 10","오전 11시반~오후9시반",,01,없음,16972,NULL,"을찌로국물떡볶이 기흥구청점",01,,611,"을찌로국물떡볶이. 김가루밥.어묵탕",37.2805988112535,결식아동,"아이 본인만","을찌로국물떡볶이. 김가루밥.어묵탕"
경기,,01,시그니처1,127.15302490645,"경기 용인시 기흥구 동백죽전대로 299",오잔10~오후10시,,01,없음,16995,088620c17ae74c1e82f6e87fdb9ae665.jpg,시그니처1,01,,488,,37.2676259491141,결식아동,"아이 본인만",
경기,01,"01,02",1층다블,127.0771609252,"경기 용인시 기흥구 서그내로15번길 33-2","10:00~ 20:00",,01,빨간날,17104,6a10ffb64ee34f9faa466c2b86ff2630.jpg,다블,03,,508,,37.2467052180578,"결식아동,독거노인","동반 2인",
경기,01,"01,02,99","1층 오른쪽 맨 끝, 푸오코",127.077163485464,"경기 용인시 기흥구 서천동 7-2",오전10시-저녁7시,"코로나 의료 종사자",01,"일요일,설,추석",17104,3beebc8a9b794c589228a6f18c7d20a1.jpg,"푸오코 (FUOCO)",01,,180,,37.2466737699332,"결식아동,독거노인,코로나 의료 종사자","아이 본인만",
경기,01,01,"102호, 타니예르",127.073680365623,"경기 용인시 기흥구 서천서로12번길 4-2",0800-2000,,01,,17105,NULL,타니예르,01,,40,,37.2406074498508,결식아동,"아이 본인만",
경기,99,01,"1층 르꼬끄스포르티브 ",127.120912749112,"경기 용인시 기흥구 신고매로 124",오전11시오후8시30분,,99,"명절 당일",17087,70c68488a5674d5dbc6808983c33a449.jpg,"르꼬끄스포르티브 ",99,"지역 조손가정 아이 본인만",1007,신발,37.2253700633778,결식아동,"지역 조손가정 아이 본인만",신발
경기,01,01,"208(일부),209,210호",127.071466746311,"경기 용인시 기흥구 영덕동 986-1","16시 ~ 24시",,01,없음,16954,b6ed583e1f894eb6a8d251fc91aa3be2.jpg,숯닭무흥덕점,01,,539,,37.2750269342452,결식아동,"아이 본인만",
경기,99,,"풍산프라자 8층 메디웰(주)",127.110784921318,"경기 용인시 기흥구 죽전로 17",9A-6P,,99,"주 4 일(토,일, 공휴일 휴무)",16897,b771b0851c3542468a144713cc167fa4.gif,메디웰(주),03,,759,,37.3207243639462,Nan,"동반 2인",
경기,99,01,"이씨티 D동206호",127.071589469754,"경기 용인시 기흥구 흥덕2로87번길 18","오전10시부터 오후 8시까지",,99,"매주 화요일",16954,963d606169624b9ebea24b641b47e399.jpg,N5헤어,01,,1038,학생커트,37.275912222227,결식아동,"아이 본인만",학생커트
경기,01,"01,02","골드프라자 B207호",127.081196270803,"경기 용인시 수지구 성복2로 17",11-20,,01,"일요일 휴무",16860,af8f56e1581b42de823ea631e52e4d68.jpg,"달콤트럭 수지센트럴점",02,,277,,37.3108346494019,"결식아동,독거노인","동반 1인",
경기,99,01,1층,127.094239373165,"경기 용인시 수지구 수지로296번길 56",11시30분-20시30분,,01,명절전날.당일,16841,4e54816b5e5347c6b5a68a233a292e95.jpg,"홍콩반점0410수지구청점 ",02,,364,짜장+탕수육,37.3210070253108,결식아동,"동반 1인",짜장+탕수육
경기,99,"01,02",1층,127.095480336164,"경기 용인시 수지구 풍덕천동 1082-7",09:00~22:00,,01,,16841,38be6ec9ddfe451fbc66b0235b87c667.png,순대보감,01,,275,"국밥류 4,000원",37.3217574019782,"결식아동,독거노인","아이 본인만","국밥류 4,000원"
경기,02,"01,02",603호,127.126425968911,"경기 용인시 수지구 현암로 153","평일 13:00~22:00, 토10:00~ 18:00",,02,공휴일,16876,NULL,119수학학원,01,,164,,37.3319519450358,"결식아동,독거노인","아이 본인만",
경기,99,01,"삼환나우빌아파트 상가 2층",127.194526387378,"경기 용인시 처인구 김량장동 516","오전11시~오전 1시",,01,,17061,11d4836dce3d498781b2925a17c9e994.jpg,"빨간토마토피자 용인1호점",01,,255,"일부 품목 제외",37.2336615847493,결식아동,"아이 본인만","일부 품목 제외"
경기,01,01,"상가 돌빙커피",127.185291322676,"경기 용인시 처인구 명지로16번길 26",10:00-22:00,,01,"매월 첫째 월,화 휴무",17054,9a9b9f64ceaf4103965a59ed87fb43d6.jpeg,돌빙커피본사직영점,02,,817,,37.2356068835221,결식아동,"동반 1인",
경기,02,99,"상가동7호 과일숲",127.182243414418,"경기 용인시 처인구 명지로40번길 35-16",10:00~20:00,"소방관, 임산부고객님들께 1000원할",01,일요일,17056,0e506f04b6704e849686d71cc7a0d698.jpg,과일숲,99,"부담없이 오셔서 말씀해주세요",576,,37.2306890205109,"소방관, 임산부고객님들께 1000원할","부담없이 오셔서 말씀해주세요",
경기,99,01,미니스톱용인외대점,127.25339347584,"경기 용인시 처인구 모현읍 외대로 36",07시~22시,,01,명절,17035,e39df9cc1b19490a90d7bb452b7d6aa7.jpg,미니스톱용인외대점,02,,838,"김밥,샌드위치,도시랑등",37.3358070186045,결식아동,"동반 1인","김밥,샌드위치,도시랑등"
경기,99,01,하나컴퓨터,127.251345881476,"경기 용인시 처인구 모현읍 초하로 78-54",10:00~17:00,,99,"주말 및 공휴일 휴무",17037,NULL,하나컴퓨터,99,"급식카드 소지한 학생의 가족 모두",1016,"컴퓨터 프린터 무료수리",37.3107536294254,결식아동,"급식카드 소지한 학생의 가족 모두","컴퓨터 프린터 무료수리"
경기,01,01,"소노펠리체 b동 101호",127.286062502534,"경기 용인시 처인구 양지면 교동로 10",8~18시,,99,"연중무휴 예약제",17158,e93a4c8f6dd44532b914f014940fe069.jpeg,"케미 케이크",01,,835,,37.2356968384748,결식아동,"아이 본인만",
경기,02,01,"150-1 1층 치킨플러스",127.219843335358,"경기 용인시 처인구 포곡읍 전대로49번길 1",12:00-24:00,,01,"매월 둘째주 넷째주 일요일",17023,4de37ddb60d94cb1bf8d074bd0a93b02.jpg,치킨플러스에버랜드점,02,,771,,37.283091306378,결식아동,"동반 1인",
경기,01,01,"104호 션하게마시자",127.227057229786,"경기 용인시 처인구 한터로152번길 2",15:00~23:00,,01,"매주 일요일",17149,d048dd3abe474b3aa8b7c66750d0368e.jpeg,션하게마시자,01,,306,,37.2484846009701,결식아동,"아이 본인만",
경기,01,01,"102호(대로변 하얀가게)",126.994963711002,"경기 의왕시 안양판교로 213",11:00~21:00,,01,15:00~17:00,16009,f28169ec337d40c78d13965d9106b6ea.jpg,엄마의두번째부엌,01,,1081,,37.3897550545718,결식아동,"아이 본인만",
경기,01,01,"A동 105호",126.963144045554,"경기 의왕시 어내들로 5",09:00~19:00,,01,,16046,71e0ad31a2af49bb9a2d12fdcf4c4a08.jpg,정다방,01,,894,,37.361593646227,결식아동,"아이 본인만",
경기,01,01,"1층 매일찬방",126.96745224943,"경기 의왕시 원골로 8",10시까지,,01,주말.공휴일,16053,NULL,매일찬방,01,,317,,37.3582767863065,결식아동,"아이 본인만",
경기,99,01,"1층 아이엔맘 ",127.034926312068,"경기 의정부시 가능동 671-19",10시~5시,,01,주말.공휴일,11681,d45cd32e89b141d18548f8c7084ce834.jpg,아이엔맘,02,,68,마카롱10구1팩,37.7492454745275,결식아동,"동반 1인",마카롱10구1팩
경기,99,,"원광빌딩 메가커피",127.047546616297,"경기 의정부시 경의로 107",09:00~21:00,,01,,11696,NULL,"메가커피 의정부경의교차로점",99,"첫방문시 맴버쉽쿠폰발급(아이 본인만)",662,"모든 음료",37.733391390855,Nan,"첫방문시 맴버쉽쿠폰발급(아이 본인만)","모든 음료"
경기,99,01,"1층 꿈꾸는아뜰리에미술교습소",127.05699560146,"경기 의정부시 경의로193번길 12",1시30분~7시,,02,"주말, 공휴일",11728,761dbec5fbc54482a01e59e495d7e979.jpg,꿈꾸는아뜰리에미술교습소,01,,41,"아동미술 주1회 90분",37.7338840861059,결식아동,"아이 본인만","아동미술 주1회 90분"
경기,99,"01,02","1층 스시화",127.092839310143,"경기 의정부시 오목로 111",10시30분~22시,,01,없음,11808,3a693598c5654111b1c172fa56c1fcfa.jpg,스시화,01,,1075,초밥,37.738011713436,"결식아동,독거노인","아이 본인만",초밥
경기,01,"01,02","삶천식당 1층",127.083843425986,"경기 의정부시 용민로26번길 40","11:30-8:30(브레이크 3-5시)",,01,"일요일, 월요일, 모든 공휴일",11785,37a6f9cc49174c99a2343e8a33c17ab8.jpeg,삶천식당,02,,727,,37.7356623295799,"결식아동,독거노인","동반 1인",
경기,02,01,한끼한죽,127.092987459469,"경기 의정부시 용현로160번길 14-7",오전10시~오후10시,,01,2시30분~4시30분,11808,be6ed607c80e414e920a6549766de7c5.jpg,한끼한죽,01,,951,,37.7399026410137,결식아동,"아이 본인만",
경기,01,01,1층,127.051215790713,"경기 의정부시 의정부동 147-18",12:00~24:00,,01,,11695,5f60b4f7094246ddbc7f9823f75e85ab.jpg,Mr.푸룻,01,,436,,37.7384287984166,결식아동,"아이 본인만",
경기,,,원이쌀밥,127.495454372032,"경기 이천시 대월면 사동로 76-19",,,01,,17342,NULL,원이쌀밥,,,497,,37.2364418191812,Nan,Nan,
경기,99,01,103호,127.472009988413,"경기 이천시 부발읍 대산로 379",오전11시~오후21시30분,,99,15시~16:30분,17329,26b4bdb062d544e0a75757a5ec974a88.jpg,"닭사부일체 이천본점 ",03,,339,"묵은지닭볶음탕+치즈폭탄계란찜 ",37.253348498392,결식아동,"동반 2인","묵은지닭볶음탕+치즈폭탄계란찜 "
경기,02,"01,02","1층 그린마트",127.491620124254,"경기 이천시 부발읍 아미리 666",오전8:30~오후23:00,,03,없음,17332,520453ea9ff94ab19ef0a908cccd9d59.jpeg,그린마트,01,,744,,37.2529134220554,"결식아동,독거노인","아이 본인만",
경기,01,01,쎄미치킨,127.442870441249,"경기 이천시 서희로 52","오후2시 - 오후 11시30분",,01,매주일요일,17374,NULL,쎄미치킨1989,03,,33,,37.2801047554224,결식아동,"동반 2인",
경기,99,"01,02",첼바,127.439482235165,"경기 이천시 설봉로30번길 32",10:00~21:00,,01,,17375,8f7d87f666ff4bd492b3809becf1adbd.jpeg,이천첼바,01,,241,"음료,샌드위치",37.2786650085148,"결식아동,독거노인","아이 본인만","음료,샌드위치"
경기,01,01,고피자,127.443681100374,"경기 이천시 창전동 158-11",10:30-23:00,,01,연중무휴,17369,5a23052714d74ac7a06b0a70640a61ab.jpeg,"고피자 이천중앙로점",02,,581,,37.2808215545351,결식아동,"동반 1인",
경기,02,01,1층상가,126.746741437849,"경기 파주시 가재울로 89",11~2,,01,없음,10871,108c628a97b643c88f35c23e003da09c.jpeg,피자스토어,03,,587,,37.7309966070184,결식아동,"동반 2인",
경기,01,"01,02","1층 129호",126.718898234988,"경기 파주시 동패동 1701",,,01,,10874,61197e8cc5a74a6aab184e9c1c4b3300.jpg,"60계치킨 파주교하점 ",03,,114,,37.7249041302205,"결식아동,독거노인","동반 2인",
경기,99,"01,99","1층 미소가와",126.78222960867,"경기 파주시 문산읍 당동리 134-3",오전9시~오후9시,,01,"매주화 휴무",10821,654584e9c9f742dc9bc4cf495f6e4362.jpg,미소가와,99,,289,"최대한 원하는 품목 ",37.8620323605614,"결식아동,",,"최대한 원하는 품목 "
경기,99,01,"1층 야당핫헤어",126.76443380175,"경기 파주시 송학1길 152",10시~7시,,03,예약필수^^카드필수^^,10909,3a677733c1bd4afcb0a54db7ed927e84.jpg,야당핫헤어,01,,524,커트,37.7150705323462,결식아동,"아이 본인만",커트
경기,99,01,1층,126.779817396487,"경기 파주시 쇠재개울길 62-13",12:00~24:00,,01,"명절 당일",10934,NULL,주가리곱창,01,,702,국밥,37.7515303949086,결식아동,"아이 본인만",국밥
경기,02,01,110호,126.761475310868,"경기 파주시 심학산로 628","오전 11시30분 ~ 밤 12시",,01,오후3시~오후5시,10908,b2e083ac2b8c44949f277eec21136f0b.jpg,생선구이와꼬치닭,01,,976,,37.7165007321262,결식아동,"아이 본인만",
경기,99,01,광성빌딩1층,126.737254882416,"경기 파주시 심학산로423번길 7-21","평일 ,일요일 9시~ 8시30분, 토요일 9시~6시",,01,,10900,0e18ea796d074d00930df28f2ffc1bec.jpg,"에그박스파주운정점 ",01,,1062,"오리지널에그,햄치즈에그,베이컨치즈에그",37.7188080741533,결식아동,"아이 본인만","오리지널에그,햄치즈에그,베이컨치즈에그"
경기,01,01,우동아저씨,126.756606465914,"경기 파주시 와동동 1576",12~21,,01,3-4,10870,NULL,우동아저씨,01,,957,,37.736169845495,결식아동,"아이 본인만",
경기,01,01,"상가104호 파더스김밥앤카페",126.758001703909,"경기 파주시 와석순환로 16",am10:00~pm8:00,,01,없음,10908,aed85a673e044c3f9cbdd2cbfc3c50f5.jpg,파더스김밥앤카페,01,,834,,37.7109105140349,결식아동,"아이 본인만",
경기,01,01,1층,126.808780286632,"경기 파주시 조리읍 내산길 71",11시~9시,,01,매주화요일,10938,NULL,명수네국물떡볶이,01,,705,,37.7466130121115,결식아동,"아이 본인만",
경기,01,01,1층,126.809174789804,"경기 파주시 조리읍 봉천로 21",오전11시10분~오후11시30분,,01,연중무휴,10937,934f058248e743988882c6835364d9fc.jpg,피자1989봉일천점,99,"꿈나무,컬러풀드림카드.소지자 및",377,,37.7429932041164,결식아동,"꿈나무,컬러풀드림카드.소지자 및",
경기,01,01,"거묵프라자 303호",126.718286766787,"경기 파주시 청석로 264",12:00-23:00,,01,"매주 월요일",10874,5b998ad889244574af4062f698272075.jpeg,백년손님서서갈비무한리필,02,,821,,37.7255837130105,결식아동,"동반 1인",
경기,99,"01,02,99","상가동101호 ",126.774159092716,"경기 파주시 후곡로 77","오전11시30분 -오후9시","국가유공자 본인",01,"매주 월요일",10918,45c5496910c74a3e9c64793a1f973251.jpg,더착한한우갈비탕,01,,103,"갈비탕 6천원",37.7495734219103,"결식아동,독거노인,국가유공자 본인","아이 본인만","갈비탕 6천원"
경기,99,01,"1층 처갓집양념치킨 고덕국제점 ",127.04875955725,"경기 평택시 고덕국제4길 54","오후 2시 - 오후 11시 50분",,01,"상황에 따라 달라요.",18008,a96127f8e2d64a23b659c0fdc18937b4.png,"처갓집양념치킨 고덕국제점 ",01,,698,"후라이드 ",37.0532740250992,결식아동,"아이 본인만","후라이드 "
경기,01,01,106호,127.105299917198,"경기 평택시 비전3로 26",오전9시~오후10,,01,"매주월요일 휴무",17852,8f083f3f45874adea7b60c7438f46fdd.jpg,"웰돈카츠&떡볶이 비전점",02,,589,,37.0023065974839,결식아동,"동반 1인",
경기,02,01,"파리바게트 소사벌상업지구",127.113664370529,"경기 평택시 비전5로 20-10",07-23,,01,,17854,NULL,"파리바게트 소사벌 상업지구",02,,1012,,36.9997545879311,결식아동,"동반 1인",
경기,01,01,"스마일빌딩 109호 고기고기",127.114716421256,"경기 평택시 비전5로 37",17:00~24:00,,01,"둘째 넷째 월요일",17854,bd46c1fe7a1048459a0523e2a52161a9.jpeg,고기고기,02,,767,,37.0015878179431,결식아동,"동반 1인",
경기,99,"01,02","아주1차아파트 상가동2층  그림네일",127.065595050577,"경기 평택시 송탄공원로 146",10:00~19,,99,"일요일, 법정공휴일",17729,680742324ca0423383218d3205ae7c4e.jpg,그림네일,01,,201,"기본젤네일, 케어(패디큐어포함)",37.0772948061652,"결식아동,독거노인","아이 본인만","기본젤네일, 케어(패디큐어포함)"
경기,99,"01,02,99","참다한홍삼 평택안중점 ",126.93134418275,"경기 평택시 안중읍 안중로 133",09:30~20:00,"전 제품 2만원 할인(홍삼,비타민)",99,,17933,155b5966fad1484183818e6b50a449ff.jpg,"참다한홍삼 평택안중점 ",02,,1017,"어린이홍삼,비타민 1회2만원할인",36.9889961612772,"결식아동,독거노인,전 제품 2만원 할인(홍삼,비타민)","동반 1인","어린이홍삼,비타민 1회2만원할인"
경기,99,01,1층,126.925177089496,"경기 평택시 안중읍 안중로 8",09시30분~19시,,03,"매주 수요일",17940,5495813256fd42709c15e08a58c35398.jpg,미스터케이헤어살롱,01,,384,"커트 무료시술",36.982372618151,결식아동,"아이 본인만","커트 무료시술"
경기,01,01,"2층 요나요나",126.923013559009,"경기 평택시 안중읍 안현로서8길 21",17~22,,01,없음,17943,NULL,요나요나,02,,561,,36.9789608079426,결식아동,"동반 1인",
경기,01,01,149호,126.919089763769,"경기 평택시 안중읍 현화리 831","11시~15시 17시~21시",,01,"매주 일요일 15:00~17:00",17944,NULL,리얼파스타,01,,335,,36.9789594602409,결식아동,"아이 본인만",
경기,01,"01,02","1층 달토끼짬뽕",127.133311493154,"경기 평택시 용이동 598-1",11시~20시30분,,01,"매주 월요일",17869,ac9ee3eddf5146009b669e69879c3fb7.jpg,달토끼짬뽕용이점,99,모두가능,613,,36.9980169564544,"결식아동,독거노인",모두가능,
경기,99,"01,02","1층 무모한초밥",127.125518279198,"경기 평택시 용이동 687-4","11:00 ~ 21:00",,01,없음,17870,cfb9343e0bfa42af854a34019b850dbe.jpg,무모한초밥(용죽점),01,,1030,"초밥,우동,돈가스",36.9924426160737,"결식아동,독거노인","아이 본인만","초밥,우동,돈가스"
경기,01,01,1층.해두리치킨,126.918233225669,"경기 평택시 청북읍 안청로2길 14-21",오후4시~11시까지,,01,"매월 첫째주 화요일",17808,9120bceb4e2041949b77bfd5a816301c.jpg,해두리치킨,01,,952,,37.0170767332995,결식아동,"아이 본인만",
경기,02,01,"104호 위더스컴퓨터 청북점",126.912010524844,"경기 평택시 청북읍 안청로3길 14",10시~19시,,03,"토요일 격주휴무 일요일 및 공휴일 휴무",17801,NULL,"위더스컴퓨터 청북점",01,,1072,,37.023014268485,결식아동,"아이 본인만",
경기,99,01,"1층 갓츠킹",126.916224527084,"경기 평택시 청북읍 청북남로 253",오전11시~오후9시,,01,연중무휴,17808,286c16d1baaf43909272ad1d5bf1da93.jpg,"갓츠킹평택청북점 ",01,,866,도시락,37.0188954226277,결식아동,"아이 본인만",도시락
경기,99,01,"1층 옹쓰온",127.084893096061,"경기 평택시 통복시장로13번길 5",12:00~20:00,,99,"월요일 휴무",17893,NULL,옹쓰온,01,,102,"캔들 원데이 클래스",36.9966364874439,결식아동,"아이 본인만","캔들 원데이 클래스"
경기,01,01,"1층 옛날돼지고기",127.061001619096,"경기 평택시 특구로23번길 39",오후4시부터자정까지,,01,없음,17774,NULL,옛날돼지고기,03,,133,,37.0676800342898,결식아동,"동반 2인",
경기,02,01,"1층 코브라독스 평택세교점",127.08044287645,"경기 평택시 평택로 146",오전11시~오후9시,,01,없음,17839,e4c351cb9c0e4690ae15867f869c4a74.jpg,"코브라독스 평택세교점",02,,687,,36.9986729694795,결식아동,"동반 1인",
경기,02,01,"리시오빌딩 1층 코브라독스 평택용이점",127.135812105166,"경기 평택시 현신3길 8",오전11시~오후9시,,01,없음,17868,742686a7712c4f6e8962401d4a6d5b11.jpg,"코브라독스 평택용이점",02,,686,,36.9958034968491,결식아동,"동반 1인",
경기,01,"01,02",1층102호,127.13302933759,"경기 평택시 현촌3길 22-13",오전10시,,03,무,17869,c27f2ea130a2405cbee0c7606c79b1fd.jpeg,"사진공간 #3",99,가족,77,,37.0014618382533,"결식아동,독거노인",가족,
경기,01,01,점심,127.165774592038,"경기 포천시 건너말길 7",11:30~21:00,,01,"14:30~17:00/재료소진시 휴무",11161,090b0a467e2943d881cef03e1c4a9799.jpg,점심,02,,1047,,37.8541768792269,결식아동,"동반 1인",
경기,99,01,106동1206호,127.145836729324,"경기 포천시 소흘읍 송선로 60","오전6시~ 오후7시",,99,연중무휴,11170,5d2f052ffb2746d1aa36da706024e83b.jpg,짱포천사다리차,99,미혼모/결식아동/홀로된노인,939,"사다리차 지원 및 후원",37.8377629501486,결식아동,미혼모/결식아동/홀로된노인,"사다리차 지원 및 후원"
경기,99,01,"2층 배양리두루치기",127.317776649036,"경기 포천시 일동면 화동로1050번길 3",12시~22시,,01,무,11117,3b774e4ff8f64fe18b72ede1bbec3c1a.jpg,배양리두루치기일동점,02,,388,김치찌개.왕계란말이.삼겹살.된장찌개,37.9571053719773,결식아동,"동반 1인",김치찌개.왕계란말이.삼겹살.된장찌개
경기,99,01,4층,127.203898858122,"경기 포천시 중앙로 132",10:00~19:00,,99,,11145,f9d683b5df03457e81e938d9ecae9708.jpg,필름1982,01,,261,증명사진,37.8977718894656,결식아동,"아이 본인만",증명사진
경기,01,"01,02",1층,127.174293492164,"경기 포천시 호국로 1149",07:00-21:00,,01,일요일후무,11158,6f6d9361de15407aa976d52445424fe9.png,"올레찹쌀꽈배기 ",99,상황에따라,861,,37.865739172543,"결식아동,독거노인",상황에따라,
경기,02,01,"1-193호 정성쿡",127.196178577013,"경기 하남시 망월동 1127",9시~10시,,99,"일요일 휴무",12912,c640a7bb14074d138e704e785c5a17f5.jpeg,정성쿡,01,,542,,37.5649066501452,결식아동,"아이 본인만",
경기,99,"01,02",1층,127.200040175996,"경기 하남시 망월동 1184-3","오전 10시 ~ 오후 9시",,01,"매주 화요일",12923,9f44fd16457d4a7dbf79816f0e7c427c.jpg,애플앤베리,02,,700,"컵과일, 과일도시락, 과일샐러드도시락",37.5608782183798,"결식아동,독거노인","동반 1인","컵과일, 과일도시락, 과일샐러드도시락"
경기,02,"01,02","1층 105호",127.188463082475,"경기 하남시 미사강변대로54번길 125","오전 10시~오후 9시",,01,"매주 일요일",12919,5be1fed600654b3c8fe823cd59e04e75.png,미사상회,01,,829,,37.5579148797949,"결식아동,독거노인","아이 본인만",
경기,99,99,그랑파사쥬2층2043호12BL미사역,127.191741670397,"경기 하남시 미사강변동로 95",10시~22시,선한영향력관련자모두,99,일요일휴무,12913,63ba0f710d80487a9d894ef96d67a4f4.jpg,알리앙스,03,,489,은귀걸이+귀뚫어줘요,37.5637312032917,선한영향력관련자모두,"동반 2인",은귀걸이+귀뚫어줘요
경기,02,01,"205호 장미맨숀",127.190169608575,"경기 하남시 미사강변중앙로204번길 11",17:00~01:00,,99,매주월요일,12913,NULL,장미맨숀하남미사점,02,,397,,37.5652351639767,결식아동,"동반 1인",
경기,01,01,1층,127.199564921149,"경기 하남시 미사강변한강로334번길 43-1","오전 10:00~오후9:00",,01,"매주 일요일",12923,5649790e10c346c1a8d04e1df7b3b62b.jpeg,샐리앤린(맥시칸라이브그릴),99,,225,,37.5600272215408,결식아동,,
경기,01,"01,02","A9-046 ",127.206467727213,"경기 하남시 미사대로 550",09:00~23:00,,02,,12925,NULL,"라바유아체육 ",02,,903,,37.556769335043,"결식아동,독거노인","동반 1인",
경기,01,"01,02,99","101동 2215호",127.19041098513,"경기 하남시 아리수로 570","오전 9시 ~ 오후 11시 50분","그외의 어려운 모든 이웃",02,"명절, 방학 중 특정 2 ~ 3일",12913,NULL,"박샘의 수학교실",02,,91,,37.566815029598,"결식아동,독거노인,그외의 어려운 모든 이웃","동반 1인",
경기,99,"01,02",503,127.207590988395,"경기 하남시 하남대로 809",10~21,,99,"빨간날은 쉽니다.",12957,79fc5cc3709b4a579599fb64c8f56f7f.png,"아라뷰티케어 ",01,,826,"기본케어 & 여드름케어",37.5410588412892,"결식아동,독거노인","아이 본인만","기본케어 & 여드름케어"
경기,99,01,1층,127.211911863719,"경기 하남시 하남대로802번길 68",11:00~20:30,,01,"매주 일요일 고정휴무",12950,e5f0c7bb19c64a669ae98a6572f1b6e7.jpg,용갈집,02,,98,"일반 갈비탕",37.5421649803204,결식아동,"동반 1인","일반 갈비탕"
경기,02,01,교동짬뽕,127.035116111721,"경기 화성시 경기대로 1027","오전 11시 ~ 오후 9시",,01,없음,18412,NULL,교동짬뽕,02,,34,,37.2074891165267,결식아동,"동반 1인",
경기,01,01,101호,127.052279783479,"경기 화성시 능동 1162-1",12시-12시,,01,"격주일요일휴무 미리전화확인유",18428,4fcca732efeb4e29b913533b7450a713.jpg,인생역전족발,03,,789,,37.1977865706486,결식아동,"동반 2인",
경기,99,01,"지하1 144호",127.090184140106,"경기 화성시 동탄기흥로 393-20",11:00-20:00,,99,연중무휴,18479,e4045f16e2584fb59632496d2ec22d78.jpg,"리틀아이보리 동탄역파라곤점",02,,534,어린이2시간이용권,37.196382557361,결식아동,"동반 1인",어린이2시간이용권
경기,01,01,"푸르지오시티 A동 208,209호 ",127.096891334834,"경기 화성시 동탄대로 551-16",09:00~19:00,,01,"매주 일요일",18478,4a8258f1e9ab4fd398ec3eb2c9cf5c0a.jpg,"오히려 김밥",03,,1056,,37.2031678570961,결식아동,"동반 2인",
경기,99,"01,02,99","동탄아이티밸리2차 317호",127.103486603475,"경기 화성시 동탄대로 706","가게는 아니고 사무실입니다",,03,,18463,f986fa5d6b2c4cfca5e8ca156b586ea6.jpg,엘리사,99,"기관이나 가정",836,방향제,37.2147213112706,"결식아동,독거노인,","기관이나 가정",방향제
경기,99,"01,02","109호(산척동,파케이드 스텔라)",127.10963511155,"경기 화성시 동탄대로6길 27","24시간 무인",,01,연중무휴,18501,b3464ca8dca7445693b23b86b91077a1.jpg,"홈즈앤쿡 동탄호수공원점",01,,205,"밀키트 1팩(2~3인분)",37.168732625447,"결식아동,독거노인","아이 본인만","밀키트 1팩(2~3인분)"
경기,01,"01,99","파케이드스텔라 지하201호 ",127.10963511155,"경기 화성시 동탄대로6길 27",16시~24시,,99,00,18501,a422771c6e52480691f54560c9a8b391.jpg,"경성주막1929 동탄호수공원점",99,가족모두,464,,37.168732625447,"결식아동,",가족모두,
경기,01,"01,02","판매시설동 1113호",127.11316148308,"경기 화성시 동탄대로시범길 134",09:00~21:00,,01,없음,18476,acd9e78154c746728d4b8763fac37b59.jpg,도담도담식빵동탄점,02,,127,,37.1990285097974,"결식아동,독거노인","동반 1인",
경기,99,"01,99","연세프라자 203호 한우궁 동탄남광장",127.072737860836,"경기 화성시 동탄문화센터로 71-17",1030~2000,"소방복착용 소방관본인 특정품목 무료 ",01,"매주 일요일",18455,e0ce1584dcd24a8f9bec113b52bb1cd1.jpg,"한우궁 동탄남광장점",01,,203,"육개장/육칼국수 떡갈비 곰탕 만두국",37.2002565523376,"결식아동,소방복착용 소방관본인 특정품목 무료 ","아이 본인만","육개장/육칼국수 떡갈비 곰탕 만두국"
경기,99,"01,02",108호,127.073002906151,"경기 화성시 동탄솔빛로 44",16시~22시,,01,아직은없음,18442,NULL,"꼬꼬불장작 동탄나루점",02,,1028,"꼬꼬한방통닭,꼬꼬누룽지통닭",37.1928883948933,"결식아동,독거노인","동반 1인","꼬꼬한방통닭,꼬꼬누룽지통닭"
경기,99,"01,02","114호 크라상점 동탄호수공원점",127.107262963697,"경기 화성시 동탄순환대로 127-23","11시 부터 21시 까지",,01,,18505,a4da7c9da6174dff924d55377f19a9c2.jpeg,"크라상점 동탄호수공원점",01,,120,"12개 랜덤박스 1개",37.1677649893905,"결식아동,독거노인","아이 본인만","12개 랜덤박스 1개"
경기,99,,"LH35단지 상가 1층 선한커피",127.121750286795,"경기 화성시 동탄순환대로10길 42","평일 7시~20시, 주말 10시~19시",,01,"매주 수요일",18504,7dead449f0ab47f9b82eb880ecfe9594.jpg,선한커피,01,,213,"카페인이 들어가지 않는 모든 음료",37.1665218597844,Nan,"아이 본인만","카페인이 들어가지 않는 모든 음료"
경기,01,01,"이지더원아파트 상가",127.110280849658,"경기 화성시 동탄순환대로28길 17",11:00~18:00,,01,"일,월,화,수,목 (금,토만 매장 운영)",18466,2125d932ec1841ad891d6e0870814f4a.jpg,샹떼콩콩,01,,466,,37.2085493874626,결식아동,"아이 본인만",
경기,02,01,"골든프라자106호 로켇트분식",127.109303432166,"경기 화성시 동탄순환대로29길 64","오전 11시 ~ 오후 9시",,01,"매주 월요일",18472,928b5dd1f3bc4ec39b2efb48d6140562.jpg,"로켇트분식 화성1호점",01,,977,,37.2044609658053,결식아동,"아이 본인만",
경기,01,01,"로얄클래스 1층 104호",127.097107696897,"경기 화성시 동탄오산로 86-8",10:00~09:00,,01,,18478,3f9b27efac084e489f18d37cefd2a429.jpg,정직한김밥,99,무관,96,,37.1978690465744,결식아동,무관,
경기,02,"01,02","이타운107호 ",127.043153435981,"경기 화성시 병점동 844-3",09~01.30,,01,매주월요인ㆍ,18405,NULL,"더맛있는과일 1리터커피 ",02,,989,,37.2143550768354,"결식아동,독거노인","동반 1인",
경기,,,곳간스토리,126.980897759189,"경기 화성시 봉담읍 고시길 28",,,01,,18327,NULL,곳간스토리,,,1054,,37.2057496081831,Nan,Nan,
경기,01,"01,02","상가 105호",126.974061771011,"경기 화성시 봉담읍 참샘길 33","평일  11:00~20:00",,01,일요일,18321,5635f3d894174895b5eae52ff3d0d4e2.jpg,트위스트꽈배기,02,,74,,37.2146129321242,"결식아동,독거노인","동반 1인",
경기,01,01,"코스코상가 105호",126.724188280493,"경기 화성시 송산면 백곡로 128","오후 3시부터  10시 30분까지",,01,연중무휴,18552,6a504d916a8f455babb48d541692331b.jpg,피자와치킨의러브레터,03,,284,,37.1976684280544,결식아동,"동반 2인",
경기,01,01,"신세계프라자b1층 다올",127.107781469234,"경기 화성시 영천동 675-1",11-19,,99,"월요일 또는 유동적",18472,fa41c65ed5be4bc0b2fa92bb830cdbfb.jpeg,다올,01,,975,,37.204707085717,결식아동,"아이 본인만",
경기,02,"01,02",102호,127.125758846318,"경기 화성시 왕배산2길 3-3",,,01,,18490,NULL,탐나는식탁,01,,694,,37.180783993073,"결식아동,독거노인","아이 본인만",
경기,99,01,제주커피,126.816104941181,"경기 화성시 우정읍 3.1만세로 16","am 8:30 ~ pm 9:00",,01,없어요.,18567,647d08df96264cd3abe15bf6cb5aa6ad.png,"제주커피 화성조암점",99,가족,865,"음료 메뉴 전체에서 선택",37.0813012468991,결식아동,가족,"음료 메뉴 전체에서 선택"
경기,02,"01,02",102호,126.822897130399,"경기 화성시 우정읍 조암동로36번길 1","월-금 10시30부터 8시까지",,01,토.일,18565,011a0c05eddb46ab8f61acc3f6cf99c1.jpg,씬즈,99,가족,604,,37.0879212803114,"결식아동,독거노인",가족,
경기,02,"01,02","압구정 베이커리 카페",126.82820995928,"경기 화성시 장안면 사랑길 170-4","매일 오전 9시 ~ 오후 9시",,01,연중무휴,18584,c5565268fb7c49bd907c254a1bb47d51.png,"압구정 베이커리 카페",03,,416,,37.0847849079415,"결식아동,독거노인","동반 2인",
경기,01,,"판매시설 1143호 하삼동 커피",127.114278180857,"경기 화성시 청계동 536",08:30~21:30,,01,없음,18476,a2abb53c07814d98af540fd1f231ccc9.jpg,"하삼동 커피",01,,972,,37.1991743092707,Nan,"아이 본인만",
경기,01,"01,02",(행정리)103호,126.914877711916,"경기 화성시 향남읍 행정서로1길 52",오전10시-오후7시,,01,연중무휴,18598,c0203ae49f304738bfae7e7bb73ed121.jpg,"곡간 수제도시락 ",02,,878,,37.1291879693971,"결식아동,독거노인","동반 1인",
경기,01,01,"1층 108호 ",126.92256415644,"경기 화성시 향남읍 행정중앙2로 63-34",오전11시~오후16시,,01,없음,18600,c4d04f444bd24b9e9f0e5ab6ff827c62.jpg,농부항아리수제비,01,,571,,37.1305772711898,결식아동,"아이 본인만",
경기,99,"01,02","메인프라자 610호",127.041973342112,"경기 화성시 효행로 1051",9:00~22:00,,03,"토,일",18398,3c1acb0e1a84482198e31e973add6c6c.png,"LINEUP Dance&Fitness",01,,202,"키즈댄스반, 청소년 댄스반",37.2146289694525,"결식아동,독거노인","아이 본인만","키즈댄스반, 청소년 댄스반"
강원,99,"01,99","상가동 103호",128.938466994141,"강원 강릉시 경강로2539번길 22",10시~20시,"독거노인, ",01,"없음, 매주호ㆍ요일",25560,30b610d50a584b0d9f29362b452c0588.jpg,"카페 빅 트리",02,,931,"샌드위치와 음료",37.7756337893027,"결식아동,독거노인, ","동반 1인","샌드위치와 음료"
강원,02,01,아빠곰,128.900262805782,"강원 강릉시 동부시장3길 5",10:00~06:00,,99,"매주 일요일,월요일",25552,7d30df0885eb4c29a111656170946c21.jpg,아빠곰,02,,652,,37.7584232678766,결식아동,"동반 1인",
강원,99,"02,99",센트로빌딩4층.차일드유,128.870051026045,"강원 강릉시 선수촌로 67","월~금 1:30-7:30","기초생활자 원비 50% 감면",02,"토요일, 일요일 휴무",25522,1b6c8fb12c0b49fdaff9220272ea4142.jpg,"차일드유 유천캠퍼스",01,,851,"원비 50% 할인",37.7568461904282,"독거노인,기초생활자 원비 50% 감면","아이 본인만","원비 50% 할인"
강원,01,01,"1층 혜자식당 (포남동)",128.910584543041,"강원 강릉시 성덕포남로153번길 7",11:00-21:00,,01,"월요일 정기휴무",25547,7bded06bc4b44ce2a20e03226835d98c.jpg,포남혜자국밥(혜자식당),02,,690,,37.7654994415522,결식아동,"동반 1인",
강원,99,01,유로코피자,128.881050458601,"강원 강릉시 원대로17번길 5",12:00~23:30,,01,15:00~17:00,25518,NULL,"유로코피자 강릉점",03,,653,"전 메뉴 L까지",37.7562994879502,결식아동,"동반 2인","전 메뉴 L까지"
강원,02,"01,02",실비생선구이,128.828211334964,"강원 강릉시 주문진읍 해안로 1721",08:00~21:00,,01,연중무휴,25418,5f87acc4ecdd45548e7127b5221210b3.jpg,실비생선구이,03,,107,,37.8886626457868,"결식아동,독거노인","동반 2인",
강원,99,"01,99",강릉유환식당,128.920244796564,"강원 강릉시 초당동 70","11시~21시 (브레이크타임15시~17시)","불우이웃증명만된다면 다됨",01,설당일휴무,25468,6fad934d5fea4d4983775a0014ac8709.jpg,강릉유환식당,01,,273,"대게장을 제외한 모든품목",37.7843555197844,"결식아동,불우이웃증명만된다면 다됨","아이 본인만","대게장을 제외한 모든품목"
강원,99,"01,99","위니아딤채 교동점",128.880399277821,"강원 강릉시 하슬라로 14",10~19시,독거노인,99,매주일요일,25518,a04369a8b08f450b8c7fadbf1359395b.jpg,위니아딤채(교동점),99,"밥굶는 아이라면 누구나",398,"에어컨,음식등 지원",37.7553622847006,"결식아동,독거노인","밥굶는 아이라면 누구나","에어컨,음식등 지원"
강원,02,01,1층,128.87772115619,"강원 강릉시 하슬라로232번길 17-7","12:00~19:00 소진시 마감",,01,"일,월,화,수,목",25508,38c1ed9af5db4683b02b3dccb7f20e72.jpg,설레이나봄,02,,472,,37.7710767063006,결식아동,"동반 1인",
강원,02,"01,99","6층 리스펙스포츠클럽",128.911608944875,"강원 강릉시 하평1길 14",13:00~21:00,"한부모가정, 차상위계층, 기초생활수급",02,"매주 일요일 휴무",25566,4fe7e87c786a44ae895d78c408477709.png,리스펙스포츠클럽,01,,901,,37.7712433255992,"결식아동,한부모가정, 차상위계층, 기초생활수급","아이 본인만",
강원,02,01,"아파트상가 105호",128.91259684892,"강원 강릉시 하평2길 6",14시~23시,,01,"매주 일요일",25567,4f137bb5cc654a1093507ad96bd273db.jpg,"인생닭강정 강릉포남점",02,,130,,37.7707769610135,결식아동,"동반 1인",
강원,01,01,1층,128.552999490414,"강원 고성군 토성면 아야진해변길 145",09:00~17:00,,01,"매주 수요일휴무 , 라스트오더  16:30",24756,06651e3de4224745a2af0179fbc33f1f.jpg,해녀의집바이아야진,02,,421,,38.2753406512419,결식아동,"동반 1인",
강원,99,01,스테이지풀빌라카페,128.560738946019,"강원 고성군 토성면 토성로 124-1",09:00~19:00,,01,연중무휴,24764,NULL,스테이지풀빌라카페,03,,814,카페음료,38.2565147795529,결식아동,"동반 2인",카페음료
강원,01,01,"또봉이통닭 ",129.335506493496,"강원 삼척시 원덕읍 호산중앙로 13",2~~12시,,01,없음,25961,NULL,"또봉이통닭 ",01,,36,,37.1745724972009,결식아동,"아이 본인만",
강원,01,01,아빠의부엌,128.57868181258,"강원 속초시 교동로 33",,,01,,24846,NULL,아빠의부엌,02,,554,,38.2019942255345,결식아동,"동반 1인",
강원,99,"01,02","가동 105호",128.581391005933,"강원 속초시 번영로43번길 22","오후5시 새벽12시30분",,01,"매주 월요일 휴무",24842,19629fe04d4a454190bd05d54a42cecd.jpg,해풍,03,,137,"3만5천원 음식제공",38.2055830932377,"결식아동,독거노인","동반 2인","3만5천원 음식제공"
강원,01,01,"2층 일미리금계찜닭속초점 ",128.582797530622,"강원 속초시 중앙로 61",11:00~24:00,,01,,24835,NULL,일미리금계찜닭속초점,02,,742,,38.2011467999792,결식아동,"동반 1인",
강원,01,01,"상가동 110호",128.578012963712,"강원 속초시 중앙로17번길 11",오전10시~오후9시,,01,"휴무시간 휴무일없음",24853,e696635f9dbb47398aa49032109c6818.jpg,"김수미의엄마손맛 속초교동점",01,,1018,,38.1988743198577,결식아동,"아이 본인만",
강원,99,01,1층,128.601681768166,"강원 속초시 해오름로188번길 12",9:00~19:30,,01,,24886,af24bdfb2ed34b95b81195f884c7c845.jpg,탑골막국수,01,,224,"막국수,만두,전병",38.1917065464169,결식아동,"아이 본인만","막국수,만두,전병"
강원,99,,1층(유)늘푸른환경,128.46572753634,"강원 영월군 영월읍 은행나무6길 13-18",08:30~18:00,,99,,26237,ff09d0b7d7d545968e1138e5b4e3a1e8.png,(유)늘푸른환경,99,"환경개선(청소)부족 아이거주 세대",860,"거주지대청소및 소독",37.178821783981,Nan,"환경개선(청소)부족 아이거주 세대","거주지대청소및 소독"
강원,02,,안경나라,128.469081657549,"강원 영월군 영월읍 중앙로 47",09:00~20:00,,99,매월넷째주일요일휴무,26232,6aa7b90d054545c9b3a4f3fb6fee2ece.jpeg,영월안경나라,01,,187,,37.1836943308128,Nan,"아이 본인만",
강원,01,01,110호(단계동),127.932217850403,"강원 원주시 북원로 2235-4",24시간,,01,"매주 화요일",26436,5cbd79ad58d945fd9e5aced3af26bbff.jpg,미아리우동집,03,,949,,37.3456912956337,결식아동,"동반 2인",
강원,99,"01,99","1층 으뜸플러스안경 원주점",127.948387887177,"강원 원주시 원일로 122-1","09:30 - 20:00",추천,99,"매주 일요일",26428,NULL,"으뜸플러스안경 원주점",01,,909,안경,37.350465442714,"결식아동,추천","아이 본인만",안경
강원,99,99,"스타에듀빌딩 4층 405호",127.871419717001,"강원 원주시 지정면 도원로 20",14:00~22:00,"결식아동. 한부모가정. 기초생활수급",02,토.일,26354,NULL,우리학원,02,,906,"초.중등 종합",37.3731283885065,"결식아동. 한부모가정. 기초생활수급","동반 1인","초.중등 종합"
강원,99,01,1,127.762550499488,"강원 춘천시 동내면 거두길 30",11시부터8시,,01,,24400,6abf99696e204b2c8ea1c6b4144e2146.jpg,면사무소,01,,643,"짜장 짬뽕 볶음밥 미니탕수육",37.8610350034652,결식아동,"아이 본인만","짜장 짬뽕 볶음밥 미니탕수육"
강원,,,"2층 채선당행복가마솥밥롯데마트춘천점",127.718080062539,"강원 춘천시 방송길 84",,,01,,24364,NULL,"채선당 행복가마솥밥 롯데마트춘천점",,,1073,,37.8685786539721,Nan,Nan,
강원,01,01,실비막국수,127.725862168643,"강원 춘천시 소양고개길 25","11:30 ~ 19:00",,01,"둘째 넷째주 월요일, 설/추석 당일만 휴무",24271,f25a2cc4d4a64b50bdee7fa7b3f6fa42.jpg,실비막국수,03,,450,,37.8836856656459,결식아동,"동반 2인",
강원,,,"1층 로우라이트",127.72864823219,"강원 춘천시 중앙로77번길 33",12-19,,99,"매수 수요일 휴무",24354,NULL,로우라이트,,,877,,37.8775338430959,Nan,Nan,
강원,01,"01,02","상가102호 하나병원 건너 큰사거리",127.748031974222,"강원 춘천시 춘천로 316",08:00~20:00,,01,연중무휴,24278,fe77f30bfa784db1a8741ebd73c98fa5.jpg,"크라상점 춘천후평점",01,,1026,,37.8818429524624,"결식아동,독거노인","아이 본인만",
강원,01,"01,02",종로타워1층,127.744332096292,"강원 춘천시 퇴계농공로 20",08:00~20:00,,01,연중무휴,24414,037364743d3c4723a0e335876e05569c.jpg,"크라상점 춘천점",01,,597,,37.8515920587413,"결식아동,독거노인","아이 본인만",
강원,99,01,,127.725493435358,"강원 춘천시 행촌로 48",17:00~03:00,,01,없음,24442,NULL,이모네고깃집,01,,356,"1인 돼지갈비",37.8605898657604,결식아동,"아이 본인만","1인 돼지갈비"
강원,01,01,봉부대,128.378489812696,"강원 평창군 봉평면 기풍로 140",08~17,,01,정해지지않았음,25303,269297a5e61f403eb8c906dc99389dc2.jpg,봉부대,02,,916,,37.6150265638094,결식아동,"동반 1인",
강원,99,"01,02","거진코다리 ",127.906624491422,"강원 홍천군 홍천읍 공작산로 137-10",11~9시30분,,01,"매주 월요일",25150,4ea6420d09244c009e966514019de45b.jpg,"거진코다리 ",99,"아이의 가족분들",986,"코다리조림 ",37.6938370581624,"결식아동,독거노인","아이의 가족분들","코다리조림 "
