area,item_code,target2_code,addr2,lng,addr1,open_info,target2_etc,type,close_info,zipcode,img_name,name,target1_code,target1_etc,idx,item_etc,lat,제공대상,제공인원,제공품목
서울,99,,"1층 (논현동, 두원빌딩) 더 수제비",127.0327484,서울 강남구 논현로132길 29,"11시~8시 (평일),  11시~6시 (토)",,1,일요일,6053,c5ab989ad40d4f7ba804b68ae7449d3a.jpg,삼청골명가 더수제비 ,2,,348,"수제비, 들깨수제비,들깨감자옹심이,감",37.51555641,Nan,동반 1인,"수제비, 들깨수제비,들깨감자옹심이,감"
서울,2,"01,02",지하 1층,127.0593834,서울 강남구 대치동 1016-4,오후1시 - 오후 10시,,2,일요일 휴무,6279,7f956996ed404dd888f5102b267fe245.jpg,87.5 탭댄스 컴퍼니,2,,393,,37.49751412,"결식아동,독거노인",동반 1인,
서울,,,남자빌딩3층,127.0410676,서울 강남구 도곡로 203,,,3,,6231,NULL,피트니스플랜비,,,748,,37.49277901,Nan,Nan,
서울,2,1,아가도스빌딩 1층 바바에스 대치점,127.0595582,서울 강남구 도곡로 449,10:00 ~21:00,,3,,6209,NULL,바바에스안경원(대치점),1,,729,,37.49883014,결식아동,아이 본인만,
서울,99,"01,02",,127.040892,서울 강남구 선릉로111길 33,9~19,,2,없음,6103,afb257251b1244c4ae21e3a8b2272213.jpeg,한국전문연주자협회,3,,872,티켓,37.51007091,"결식아동,독거노인",동반 2인,티켓
서울,1,"01,02",101,127.0439124,서울 강남구 언주로69길 16,10~21,,1,연중무휴,6226,dc68812e49754702b668c0b61171173c.jpg,우리카페,2,,454,,37.49642535,"결식아동,독거노인",동반 1인,
서울,,,3층,127.0348978,서울 강남구 테헤란로 143,,,99,,6132,NULL,메이머스트,,,925,,37.50061921,Nan,Nan,
서울,99,,다른타워 8층 법률사무소 서화담,127.0396507,서울 강남구 학동로 335,09시 ~ 18시,,99,"토요일, 일요일, 관공서 공휴일 등",6060,NULL,법률사무소 서화담,1,,64,급식카드소지학생대상법률서비스,37.51698816,Nan,아이 본인만,급식카드소지학생대상법률서비스
서울,99,"01,02,99",102-2호 통닭&강동생족발보쌈,127.1687802,서울 강동구 고덕로 390,점심12시~밤12시,소방관은 전메뉴 50%할인,1,"연중무휴 , 포장 배달 전문점",5274,cf423ae9061341bdad4f5031b168a4d4.jpg,통닭&강동생족발보쌈,99,포장 배달 전문점입니다.,624,아동=통닭1마리무료&전메뉴50%할인,37.55662641,"결식아동,독거노인,소방관은 전메뉴 50%할인",포장 배달 전문점입니다.,아동=통닭1마리무료&전메뉴50%할인
서울,99,1,203호,127.1637038,서울 강동구 동남로82길 120,20-Oct,,3,공휴일 일요일,5224,bc173fd2a34149a3850d85a3ca8dbc70.jpeg,벨라로그,1,,833,주니어컷,37.5600131,결식아동,아이 본인만,주니어컷
서울,1,"01,02",2층 암사비치푸드마켓,127.1262047,서울 강동구 상암로 24,pm 4::30 ~ PM 12:00,,1,없음,5242,NULL,암사비치푸드마켓,3,,512,,37.55052146,"결식아동,독거노인",동반 2인,
서울,2,1,1층 101호(성내동),127.1217148,서울 강동구 성내로 7,09:00 ~ 21:00,,1,"1, 3주 일요일",5392,2fad6b7e0ab54666b65b8e130cccf62e.jpg,미미고찹쌀꽈배기강동구청점,2,,978,,37.53062111,결식아동,동반 1인,
서울,1,1,1층 103호 엥겔커피,127.1303196,서울 강동구 성안로 39,12:00-24:00,,1,매주 수요일,5396,NULL,엥겔플랜트,2,,330,,37.52738373,결식아동,동반 1인,
서울,1,1,105호 식사준비,127.174498,서울 강동구 아리수로93나길 50,10:00~20:00,,1,없음,5415,7a3e969675c24fceba5d7edbe1510e68.png,식사준비 강일점,1,,123,,37.57209972,결식아동,아이 본인만,
서울,2,1,신참떡볶이,127.1420544,서울 강동구 양재대로 1549,10시30분~22시 30분,,1,없음,5315,NULL,신참떡볶이 굽은다리역점,2,,596,,37.54404843,결식아동,동반 1인,
서울,99,1,라라브레드 1층,127.1412204,서울 강동구 양재대로116길 13,11:00 ~ 20:00,,1,x,5343,NULL,라라브레드,1,,654,직원선택 빵2종,37.53867777,결식아동,아이 본인만,직원선택 빵2종
서울,,,,127.1321077,서울 강동구 진황도로29길 8,,,99,,5337,NULL,청춘집합소,,,270,,37.53851199,Nan,Nan,
서울,2,1,b114 미화동,127.1331156,서울 강동구 천호대로 1089,10시30분~20시,,1,15-17시,5339,7b57cff0eea441e3bcda1ceb05171170.png,미화동,1,,519,,37.53660488,결식아동,아이 본인만,
서울,1,"01,02",1층,127.1489976,서울 강동구 천호대로 1240-13,10:00~8:00,,2,금요일,5359,6747d5cf1fb34004a8af1963dbee0ebc.jpg,허브문화예술창작소,1,,1045,,37.53586511,"결식아동,독거노인",아이 본인만,
서울,99,1,동아빌딩 2층,127.0224522,서울 강북구 노해로 41,17시~02시,,1,"월,화요일  17~18시  식사제공가능",1077,c11ace05a0cf422983dd803a6ef41891.jpg,아이엠,1,,204,파스타 메뉴,37.63930588,결식아동,아이 본인만,파스타 메뉴
서울,,"01,99",1층,127.0266419,서울 강북구 덕릉로 115,,"입양보류아동,무연고아동",1,,1069,NULL,인생푸드,,,844,,37.63513651,"결식아동,입양보류아동,무연고아동",Nan,
서울,1,"01,02",B2 송탄영빈루,127.0305177,서울 강북구 도봉로 62,10:30~19:30,,1,,1215,71f6fa046fcf49838ba2ec4c54fe4cf3.jpg,롯데백화점 미아점 송탄영빈루 ,1,,175,,37.61459298,"결식아동,독거노인",아이 본인만,
서울,99,1,1층,127.0168281,서울 강북구 삼양로93길 3,,,1,,1087,NULL,땅땅치킨 수유점,1,,940,1인식사제공(서울회관) 스몰치킨제공,37.63730555,결식아동,아이 본인만,1인식사제공(서울회관) 스몰치킨제공
서울,1,"01,02",진영빌딩 1층 달리는커피,127.0166481,서울 강북구 솔샘로 216,평일 10시~20시 /토요일 10시~18시,,1,매주 일요일 휴무,1193,51f2ae71e02f4bd3902ae72c2fe44a7a.jpeg,달리는커피 서울 삼각산점,1,,1042,,37.61989293,"결식아동,독거노인",아이 본인만,
서울,1,"01,02",2층 작심스터디카페 발산점,126.8373033,서울 강서구 강서로 324,24시간,,2,365일 영업,7680,478a824727114b6484272f3a0e33dcaa.png,작심스터디카페 발산점,1,,792,,37.55459095,"결식아동,독거노인",아이 본인만,
서울,99,1,지하1층,126.8404988,서울 강서구 강서로56길 17,매일10:30~20:30,,1,없음,7584,5f0111fc3a8344878c626521a0223ecb.jpg,마라홀릭,1,,199,마라탕,37.55993353,결식아동,아이 본인만,마라탕
서울,2,1,야채가게 ,126.8467649,서울 강서구 곰달래로25길 65-27,09시-20시까지,,99,없음,7756,6ba053ca33c149f083d38290f7d86c6e.jpg,우리상회,2,,483,,37.53297009,결식아동,동반 1인,
서울,99,"01,02",류마타워 1층 111호 엘로이카페,126.8255148,서울 강서구 공항대로 164,08:00~19:00,,1,2주 4주 일요일,7807,09259e6692f040c190b505b51fb33965.jpg,엘로이카페,2,,891,카드 제시 할 시 1인당 음료 한잔,37.55932597,"결식아동,독거노인",동반 1인,카드 제시 할 시 1인당 음료 한잔
서울,1,1,2층 212호 양평해장국,126.8343276,서울 강서구 공항대로 242,매일 09 : 00 ~ 21 : 00,,1,"휴무시간 업음, 휴무일 설, 추석 연휴 ",7805,a73f0a82b961448ba0a5f068bfc1d3b7.png,양평해장국 강서마곡점,99,동반자 모두,31,,37.5584802,결식아동,동반자 모두,
서울,99,"01,02",,126.8642673,서울 강서구 공항대로59가길 7,예약제로 운영,,2,,7563,909655424fe745099b84d69de959eea0.png,심리상담연구소 문,99,아동 및 가족,776,심리상담 심리평가 등 심리상담서비스,37.55218449,"결식아동,독거노인",아동 및 가족,심리상담 심리평가 등 심리상담서비스
서울,1,"01,02",101동 앞 상가 개러지키친 7호,126.8470287,서울 강서구 등촌동 701,16:30~02:00,,1,x,7587,68070fbccaee45acb619659570ec3fb3.jpg,연어꽃,1,,731,,37.55983847,"결식아동,독거노인",아이 본인만,
서울,99,1,"2층 223,4호",126.8274661,서울 강서구 마곡동 760-2,10:30 - 20:30,,3,"1월1일, 명절당일휴무",7788,NULL,샵일구구공,1,,545,컷트 무료,37.56785424,결식아동,아이 본인만,컷트 무료
서울,99,"01,02",B동 221호,126.8256454,서울 강서구 마곡서로 152,17:00~00:00,,1,매주 월요일 & 매달 마지막 주의 일요일,7788,f274963b783743a19399346928d81184.jpg,EXPER2,99,4명까지 가능,717,당일날 제일 맛있는 메뉴들로 제공!,37.56771074,"결식아동,독거노인",4명까지 가능,당일날 제일 맛있는 메뉴들로 제공!
서울,1,"01,02",,126.8256454,서울 강서구 마곡서로 152,,,3,,7788,NULL,아트포유 셀프사진관,2,,923,,37.56771074,"결식아동,독거노인",동반 1인,
서울,1,1,103호 순흑네,126.8256377,서울 강서구 마곡중앙로 59-9,07~20시까지,,1,일요일 휴무,7807,e7505477c05e44c9a38a6be76c6307da.png,순희네 꼬마김밥,1,,553,,37.55884745,결식아동,아이 본인만,
서울,99,2,2층 금수저"",126.8379095,서울 강서구 양천로47길 24,월-금/11:00~20:00 토/11:00~15:00,,1,매주 일요일 휴무,7522,93cf93cb8d9b44f58af5d508a5b52ef2.png,금수저,3,,648,백숙을 제외한 전메뉴 (1인 1메뉴),37.57151275,독거노인,동반 2인,백숙을 제외한 전메뉴 (1인 1메뉴)
서울,2,1,1층 샌드위치만드는언니,126.8394323,서울 강서구 월정로30길 64,월-토 10시~9시,,1,매주 일요일,7767,a11cd095b3aa4331b5acadf40ac27bf2.jpg,샌드위치만드는언니,1,,409,,37.53487822,결식아동,아이 본인만,
서울,2,1,1층정육점,126.8449262,서울 강서구 화곡동 348-4,9/30/2022 22:00,,99,없음,7770,a00e830f04494c50b8121d015cb29bc3.jpg,청춘푸줏간,1,,366,,37.53300706,결식아동,아이 본인만,
서울,,,2f,126.8568023,서울 강서구 화곡동 822-20,non,,99,non,7738,NULL,(주)지니글로벌네트웍스,,,23,,37.53443312,Nan,Nan,
서울,99,1,1층 컴포즈커피,126.8497029,서울 강서구 화곡로 313,08:00~23:00,,1,없음,7686,d388176af7db4ace801c1f56a2ddb110.jpg,컴포즈커피 강서구청점,99,아이 본인 직접 방문,117,원하는 음료 한잔,37.55228371,결식아동,아이 본인 직접 방문,원하는 음료 한잔
서울,2,1,그랜드아이파크 1층/2층,126.8512924,서울 강서구 화곡로 347,오전08:00~오후11:00,,1,연중무휴,7649,b7511b8423534f0195de65e7d8c80470.png,투썸플레이스강서구청점,1,,62,,37.55483518,결식아동,아이 본인만,
서울,99,1,이루는교회 2층 카핏,126.9563,서울 관악구 관악로 234,오전10시 ~ 오후7시,,1,일요일.공휴일,8737,b591a418317640c49e7ffc7fd91bfb78.jpg,카핏,1,,290,음료1. 디저트1,37.4849602,결식아동,아이 본인만,음료1. 디저트1
서울,1,"01,02",모두의주방 지하1층 3호,126.9567893,서울 관악구 관악로 251,오전9시~익일 오전12시,,1,,8727,NULL,까사피에스타,2,,676,,37.48689701,"결식아동,독거노인",동반 1인,
서울,1,1,1층 부타앤카츠,126.9228698,서울 관악구 난곡로34길 70,오전 9시30분 ~ 오후11시,,1,연중무휴,8854,cd1f155fd8b9401b95ecdab00d125f2a.jpeg,부타앤카츠,99,사장 맘대루,718,,37.47197623,결식아동,사장 맘대루,
서울,2,1,1층 피자헛,126.9182755,서울 관악구 남부순환로 1508,10:30~22:30,,99,,8772,NULL,피자헛난곡2호점,1,,446,,37.48224817,결식아동,아이 본인만,
서울,2,1,1층 커피플래닛,126.9182755,서울 관악구 남부순환로 1508,월-토 7:00-23:00  일9:00-23:00,,1,,8772,NULL,커피플래닛,2,,738,,37.48224817,결식아동,동반 1인,
서울,1,"01,02",지하 1층 13호,126.9606899,서울 관악구 남부순환로 1904,11시~10,,1,없음,8792,0c28f05534e04c0a865da8a6d47b9423.jpg,하루하나,2,,855,,37.47786558,"결식아동,독거노인",동반 1인,
서울,99,1,5층 티나에스테틱 ,126.9776984,서울 관악구 남현길 7,11시~10시,,99,일요일 공휴일,8806,c9af89d43c184c9f83c961162d90f479.jpg,티나에스테틱 ,1,,862,두피케어,37.47606844,결식아동,아이 본인만,두피케어
서울,1,"01,02",지하1층,126.9382423,서울 관악구 대학5길 8,오후2시-오후10시,,99,"목요일, 일요일 ",8814,9f4602055d4e4ef29075cf2e7409f6f0.jpg,위드짐,1,,143,,37.46917583,"결식아동,독거노인",아이 본인만,
서울,1,"01,02",1층 커피정류장,126.9385051,서울 관악구 복은길 46,9시~9시,,1,매주 월요일 휴무,8834,5f7f81eb8d954e50a98bdbbb82b34dff.jpg,커피정류장,1,,263,,37.47444309,"결식아동,독거노인",아이 본인만,
서울,1,1,2층 오후의과일,126.9534873,서울 관악구 봉천동 1599-4,11~22,,1,"매주화요일(주말토,일은제외)",8788,d2577cc8b8b44d20a783220e01b691ff.jpg,오후의과일,2,,793,,37.47927764,결식아동,동반 1인,
서울,2,"01,02",1층 Dal.lem,126.9480721,서울 관악구 봉천동 464-25,화-토 오후2시~오후10시,,1,,8729,746bdc6e0af54d4484779117f641cf54.jpg,달렘,1,,173,,37.48721399,"결식아동,독거노인",아이 본인만,
서울,99,,1층 피자나라치킨공주,126.9478424,서울 관악구 봉천동 892-2,12~24시,,1,매주 화요일,8748,NULL,피자나라치킨공주,1,,514,피치세트,37.48313764,Nan,아이 본인만,피치세트
서울,99,1,제1싱가동 104호 백년카츠,126.9432503,서울 관악구 봉천로 391,11시 ~ 21시,,1,3시~4시,8750,fcff53e57c6842f8ab0bfe2ec2287b72.png,백년카츠 관악점,1,,536,"개별메뉴 전부(세트,정식 제외)",37.48347141,결식아동,아이 본인만,"개별메뉴 전부(세트,정식 제외)"
서울,99,1,1층 한우육회마을2호점 ,126.9557439,서울 관악구 봉천로 520-1,오후6시~9시,,1,일요일휴무,8789,NULL,한우육회마을2호점 ,2,,1034,육회비빔밥,37.47938807,결식아동,동반 1인,육회비빔밥
서울,1,"01,99",1층 cu편의점 옆,126.9352285,서울 관악구 신림동 1741,24시간,소개추천,1,없음,8780,cd3f884895954b2b84cb13430bb6fcac.png,바다가내손아귀,99,가족포함,753,,37.48272396,"결식아동,소개추천",가족포함,
서울,1,"01,02",101호  별꿈다락,126.9403552,서울 관악구 장군봉1길 3,12:00~22:00,,1,정기휴일 없음,8784,464d8ac13d514f858f27918c9a483daf.jpg,별꿈다락 ,1,,770,,37.48229543,"결식아동,독거노인",아이 본인만,
서울,1,1,1층 백가집,126.9339123,서울 관악구 호암로24길 11,오전 11시 ~ 오후 8시,,1,매주 토요일,8812,NULL,백가집,1,,584,,37.47001899,결식아동,아이 본인만,
서울,1,1,3층 초심스터디카페 구의점,127.0938461,서울 광진구 광나루로 588,24시간,,2,없음,5033,e85a29f3090f4e7db2a25c5de1d112bb.jpeg,초심스터디카페 구의점,1,,327,,37.5426904,결식아동,아이 본인만,
서울,1,"01,02",1층 카페더네네,127.0752425,서울 광진구 광나루로20가길 21,07:00~17:00,,1,"토요일, 일요일",5021,695bda944d774484acfef954ba9339d6.png,카페더네네,2,,176,,37.54522363,"결식아동,독거노인",동반 1인,
서울,1,1,지하1층 초심스터디카페,127.0976335,서울 광진구 광장동 470-10,24시간,,2,365일 영업,4974,02c2348df85642b7833907a174c62dbf.jpg,초심스터디카페 광장점,1,,325,,37.54141746,결식아동,아이 본인만,
서울,1,1,1층,127.0893767,서울 광진구 구의로 8,오전 11:30~ 오후 11:30,,1,평일 오후 3시~5시,5045,634b4b4f54624a79a189234127647d0e.jpeg,먹오삼,2,,392,,37.53866603,결식아동,동반 1인,
서울,99,1,102동 130호,127.081583,서울 광진구 아차산로 345,09:00 ~ 04:30,,1,연중무휴,5026,NULL,프레드피자건대점,1,,984,피자L한판+음료,37.53750524,결식아동,아이 본인만,피자L한판+음료
서울,1,"01,02",1층 와플소녀,127.0877256,서울 광진구 용마산로22길 12,12:00 ~ 19:30,,1,주말,4941,e3723bef3b134c4c9bca740336ed1c9e.jpg,와플소녀,99,누구든지!,552,,37.56352347,"결식아동,독거노인",누구든지!,
서울,99,1,1층 사무실,127.0861322,서울 광진구 천호대로119길 6,평일 오전 9:00 ~ 오후 5:00,,99,"주말,공휴일",4931,14ce6bcfe1844970babcae72796d8146.jpg,주식회사 중원디앤케이,1,,673,핫팩 한달치 30개. 매달 지급^^,37.55515978,결식아동,아이 본인만,핫팩 한달치 30개. 매달 지급^^
서울,99,1,1층 잉크마루,126.8563095,서울 구로구 개봉로 50,오전 10시부터 오후 7시까지,,99,"일요일,공휴일",8332,0838590cb15348b288d16ee6316d4210.jpg,잉크마루,1,,301,"잉크충전, 출력, 복사, 코팅",37.49012558,결식아동,아이 본인만,"잉크충전, 출력, 복사, 코팅"
서울,99,1,007호 곱창의축복,126.8569352,서울 구로구 경인로 331,오후 12시 저녁 9시,,1,일요일,8226,d517c458dad94f92b84284605229f880.jpg,곱창의축복,99,"본인과 가족(어린이, 청소년)",522,"곱창, 국밥",37.49769182,결식아동,"본인과 가족(어린이, 청소년)","곱창, 국밥"
서울,1,1,지하115호 식당가,126.8954191,서울 구로구 구로동 212-8,11-20시,,1,공휴일 및 주말,8390,effa2164200d4f168a917f516ac319af.jpg,어부식당,3,,494,,37.48367843,결식아동,동반 2인,
서울,99,"01,02",201호 육회지존,126.8588797,서울 구로구 남부순환로97길 20-7,16:30~익일 02:00,,1,별도공지,8328,a0eeb1005b7140d2a8afc793d89f5f18.jpg,육회지존(개봉역점),99,가족 구성원 전부 가능,101,"육회비빔밥,연어장덮밥,외 모든 식사류",37.49391885,"결식아동,독거노인",가족 구성원 전부 가능,"육회비빔밥,연어장덮밥,외 모든 식사류"
서울,99,"01,02",1층 113호,126.8953185,서울 구로구 디지털로26길 38,11:00 ~ 21:00,,1,15:00~17:00,8393,8bcd01079fdd4c5fa98484ce59fc1a28.jpeg,오로지라멘 구로지타워몰점,2,,548,"차슈동, 교자, 가라아게",37.4798477,"결식아동,독거노인",동반 1인,"차슈동, 교자, 가라아게"
서울,99,1,이레가구,126.9085988,서울 금천구 금하로23길 33,10시-20시,,3,매주 주일(일요일),8573,9177fbb09c2e4171bb2c9f06a885e17d.jpg,이레가구,1,,780,책상/의자,37.45278001,결식아동,아이 본인만,책상/의자
서울,99,1,306호,126.8871007,서울 금천구 디지털로9길 46,오전 10시 ~ 밤 10시,,2,일요일,8512,3ec8e39606be4f42914f9bd245532af3.png,티엔티 스피치,1,,856,보이스 트레이닝 (예약 필수),37.48005881,결식아동,아이 본인만,보이스 트레이닝 (예약 필수)
서울,99,"01,02",1층 더카페 이네스트점,126.8900295,서울 금천구 범안로 1155,07:30~21:00,,1,,8587,09ea7f4adc0f413fb7e430694fff1409.jpg,더카페 이네스트점,2,,850,"음료1, 베이커리1",37.46681871,"결식아동,독거노인",동반 1인,"음료1, 베이커리1"
서울,99,1,라라브레드1층,127.0777431,서울 노원구 공릉동 350-22,10:00~21:00,,1,x,1835,NULL,라라브레드,1,,656,직원선택 2종,37.62493456,결식아동,아이 본인만,직원선택 2종
서울,99,"01,02",태릉해링턴플레이스 상가 2층 올가드림,127.081601,서울 노원구 공릉로34길 86,오전10시~오후8시,,99,"월요일,토요일,일요일",1817,NULL,올가드림뷰티 공릉점,1,,884,"모공케어,여드름케어",37.62576537,"결식아동,독거노인",아이 본인만,"모공케어,여드름케어"
서울,99,1,상가동 209호,127.0719352,서울 노원구 덕릉로73길 28,평일 :13시-20시30분 / 토요일 : 11시-18시,,1,"매주 일요일,월요일 정기휴무",1706,b9711536cfea4dd38badb90314d3cec7.jpg,헤스론,1,,924,구움과자류,37.65247558,결식아동,아이 본인만,구움과자류
서울,99,1,지층,127.0563999,서울 노원구 동일로 1598,11:30~21:30,,1,15:00~17:00,1631,NULL,달인보쌈,1,,475,마늘보쌈도시락,37.67105614,결식아동,아이 본인만,마늘보쌈도시락
서울,1,"01,02,99",효영빌딩 102호,127.0732331,서울 노원구 동일로173가길 25,09~20,"산악구조대, 산림청,",3,일요밀 휴무,1860,b35109ecae0f41ff8640136b36bfd311.jpg,슈마스터태릉점,2,,405,,37.61941061,"결식아동,독거노인,산악구조대, 산림청,",동반 1인,
서울,1,"01,99",상가동 2층 201호 용인대금메달태권,127.0569993,서울 노원구 동일로250길 18,12:00 ~ 22:00,사회적배려대상자,2,토. 일. 공휴일,1623,422e88b1d9f64b30907e25cb4c9f5f59.jpg,용인대금메달태권도,1,,892,,37.68184246,"결식아동,사회적배려대상자",아이 본인만,
서울,1,"01,02",현성빌딩 지하1층 B04호,127.0622496,서울 노원구 상계로 65,10:00-02:00,,99,연중무휴,1693,6b69647919aa4dbca00b07486664b36a.png,카툰공감 노원역점,1,,559,,37.65635432,"결식아동,독거노인",아이 본인만,
서울,99,"01,02",1층 미소한가득,127.0634673,서울 노원구 석계로9길 10,12:00~19:00,,99,"일,월,화,공휴일",1901,29261b9d60d64b0cac2290daae94394d.jpg,미소한가득,1,,1061,보틀케이크 2개 ,37.61759699,"결식아동,독거노인",아이 본인만,보틀케이크 2개 
서울,99,1,1층이리로레스토랑 ,127.0702955,서울 노원구 하계동 208-19,11시30분 ㅡ5시,,1,없음,1790,716fb033e9d24cc4a8079e9e203620fa.png,이리로,1,,985,"돈가스,파스타",37.63887505,결식아동,아이 본인만,"돈가스,파스타"
서울,99,"01,02",1층 카페거실,127.0666312,서울 노원구 화랑로47길 9,,,1,,1914,e1721cbcbaec405e91268455b4a7948b.jpeg,카페거실,1,,329,음료메뉴 전부,37.61574588,"결식아동,독거노인",아이 본인만,음료메뉴 전부
서울,2,1,영진빌딩 106호,127.0500754,서울 도봉구 노해로69길 21-11,"평일오후4시-12시 주말,휴일오전11시~밤 12시",,1,둘째넷째 화요일 휴무,1414,1cc9ad8369884b49afad580b4ac29b99.jpg,족발야시장창동역점,3,,359,,37.65310992,결식아동,동반 2인,
서울,99,99,405호,127.0359669,서울 도봉구 도당로 76,wannabegoods_lux,마스크가 필요한 어린이,99,"토,일",1343,e2a4090e32ce4669b6570cb8d9354a4a.jpg,워너비굿즈 ,2,,808,어린이 구리사마스크,37.66457204,마스크가 필요한 어린이,동반 1인,어린이 구리사마스크
서울,2,1,1층,127.0435593,서울 도봉구 도봉동 597-21,평일 오전 11시30분 부터 오후 9시30분,,1,오후2시30분 부터 오후 6시까지,1307,NULL,써이포차나,2,,271,,37.67783199,결식아동,동반 1인,
서울,1,"01,02",1층 교촌치킨 쌍문역점,127.0356034,서울 도봉구 도봉로 505,12:00 ~ 01:00,,1,,1442,77166023ca9a479ebdaa2439a075e6c6.jpg,교촌치킨 쌍문역점,3,,100,,37.65072874,"결식아동,독거노인",동반 2인,
서울,99,,메가커피 창동역점,127.0492033,서울 도봉구 마들로11가길 13,09:00~21:00,,1,,1414,NULL,메가커피 창동역점,99,첫방문시 맴버쉽쿠폰발급(아이 본인만),660,모든 음료,37.65290468,Nan,첫방문시 맴버쉽쿠폰발급(아이 본인만),모든 음료
서울,1,"01,02",무중력 지대 달 1/6,127.0487467,서울 도봉구 마들로11길 75,11::00 - 21:00,,1,일요일,1414,1680fab24b974c73b5c0d8077327325c.jpg,소스공작단,2,,509,,37.65315868,"결식아동,독거노인",동반 1인,
서울,2,1,105호 나주곰탕,127.0448214,서울 도봉구 방학동 717-2,오잔8시  부터 오후9시,,1,없음,1332,NULL,바우네나주곰탕,1,,1052,,37.66728591,결식아동,아이 본인만,
서울,1,"01,02",1층,127.0385739,서울 도봉구 창동 554-1,16:00-02:00,,1,일요일,1477,NULL,청춘불닭발,2,,1084,,37.63683067,"결식아동,독거노인",동반 1인,
서울,2,1,2층 주크(모드베베),127.037945,서울 도봉구 창동 703,,,99,,1428,60ff90ee67534226bb10b8ec9db5f5ab.jpg,주크(모드베베),,,827,,37.65304462,결식아동,Nan,
서울,99,"01,02,99",2층,127.0531211,서울 동대문구 이문로1길 16-3,오후2시부터 7시,기초생활수급자 ,2,"토,일,공휴일",2461,1552e0747ff84c12ae5f7e19a9f67475.jpeg,예술의악당음악학원,1,,782,피아노 교습비 90% 감면,37.58910135,"결식아동,독거노인,기초생활수급자 ",아이 본인만,피아노 교습비 90% 감면
서울,1,"01,02",1층 사미커피,127.0716423,서울 동대문구 장한로14길 70,09:30~23:59,,1,"평일 17:30~20:00, 주말X, 공휴일휴무",2642,0facd33502194a9581fe9d3ba50d0bbe.png,사미커피,2,,141,,37.56512557,"결식아동,독거노인",동반 1인,
서울,1,1,1층 유끼노하나,127.0728255,서울 동대문구 장한로36길 10,"낮12시~익일 새벽 1시(금,토 익일 새벽 2시)",,1,오후 4시20분~6시 브레이크타임,2522,91f5b229660740f6981fb9e3aca27339.jpg,유끼노하나,1,,419,,37.57742109,결식아동,아이 본인만,
서울,99,1,1층,127.0584512,서울 동대문구 전농동 46-71,오전11시부터 오후11시까지,,1,없음,2507,be9f317bf82943e9896e9ee5c5b63183.jpg,봉수아피자 답십리점,1,,196,콤비네이션XL 불고기XL 하와이안XL,37.57880066,결식아동,아이 본인만,콤비네이션XL 불고기XL 하와이안XL
서울,1,"01,02",지하 1층 너나들이,127.0508587,서울 동대문구 회기동 60-71,12:00~22:00,,1,연중무휴,2454,ab8a85111e9144219ee7b9ccd4909aff.jpeg,너나들이 만화카페 ,1,,588,,37.59232195,"결식아동,독거노인",아이 본인만,
서울,1,1, 3층 정재광 복싱클럽,127.0531009,서울 동대문구 회기로 152,오전 12시 부터  오후 10시 까지,,2,법정 공휴일 모두 쉽니다.,2460,aec747b5bb794391acb2d52205ee752a.jpg,정재광 복싱 클럽,1,,468,,37.59106832,결식아동,아이 본인만,
서울,99,1,1층 우측,127.0605774,서울 동대문구 휘경로 6-8,오전 11시~오후 7시,,1,매주 월요일 휴무,2440,f343267741984b2bae35970f7dc3eeed.jpg,이문동辛냉면 ,1,,904,"냉면, 만두",37.59580646,결식아동,아이 본인만,"냉면, 만두"
서울,1,1,1층 봉식이떡볶이 ,126.9313244,서울 동작구 국사봉1길 70,오전 11시30분~오후9시30분,,1,월요일,7043,dd708970061a481cb4ce2d6f690977e2.jpg,봉식이떡볶이,1,,650,,37.49827945,결식아동,아이 본인만,
서울,99,,스페이스살림 1층 스타트업매장 2호,126.9272725,서울 동작구 노량진로 10,13:00 - 20:00 (요일별 상이),,3,"일,월 휴무",6938,5f33988923e040b78cb960811e1d4f88.jpg,월경상점,2,,181,누르 생리대,37.51239334,Nan,동반 1인,누르 생리대
서울,99,"01,99",1층 육대장,126.9813284,서울 동작구 사당동 89-6,오전11시~오후9시,독거노인,1,연중무휴,6997,1e1f5f40c5484f6992432d9bcd378a74.jpg,육대장이수역점,2,,239,"육개장,설렁탕",37.48876924,"결식아동,독거노인",동반 1인,"육개장,설렁탕"
서울,1,1,오태식해바라기치킨,126.971246,서울 동작구 사당로16가길 42,오전 11시 ~ 새벽 1시,,1,주일,7010,51eb19e92a1342c7bbf8fde0085662e9.jpg,오태식해바라기치킨 사당153점,1,,544,,37.48357948,결식아동,아이 본인만,
서울,1,1,지하2층 Bread.co 브레댄코,126.9477004,서울 동작구 상도로 지하 272,07:00-22:00,,1,,7032,30cf962d1bfa49b3982b3ebd06ec84f6.jpg,브레댄코,2,,910,,37.50320805,결식아동,동반 1인,
서울,1,"01,02,99","지상 1,2층",126.9542749,서울 마포구 굴레방로7길 22,09:00~22:00,경찰,1,"구정, 추석 휴무",4115,3e5bb874fd654b32b4e31de088d00d1c.jpg,커피프릭,1,,929,,37.55635049,"결식아동,독거노인,경찰",아이 본인만,
서울,1,"01,02",피에스타7커피,126.9239017,서울 마포구 동교동 164-18,"평일 : 오전 8시~23시,주말 : 오전 9시~23시",,1,연중무휴,4050,e145bd03f14d4927b1f4323c74ea9845.png,피에스타7커피,1,,941,,37.55596451,"결식아동,독거노인",아이 본인만,
서울,1,"01,02","2층 (망원동,삼운빌딩)",126.9096697,서울 마포구 동교로 67,1200~1900,,2,"토,일요일",4018,NULL,성산베스트플러스학원,2,,623,,37.5537428,"결식아동,독거노인",동반 1인,
서울,99,1,1층 소빛골드스테이션,126.9470541,서울 마포구 마포대로 53,09:00~20:00,,1,없음,4158,1a6d0cc3ca76472a80ca63e40aedcc19.png,sobit gold station,1,,1077,라면세트와 케잌,37.54143216,결식아동,아이 본인만,라면세트와 케잌
서울,1,"01,02",102호,126.9041936,서울 마포구 망원동 424-9,10시~20시,,3,없어요(예약하면 됩니다),3964,16b3720736304ec78434e0e1303b8e07.jpg,달콤헤어,1,,763,,37.55812751,"결식아동,독거노인",아이 본인만,
서울,1,"01,02",1층 동경규동,126.8961494,서울 마포구 매봉산로2길 68,11:00 ~ 20:00,,1,"15:00~17:00 휴무시간 / 공휴일, 일요일 휴무",3930,db74628119934a94a13b57d621cdd15c.jpg,동경규동상암,3,,898,,37.57637326,"결식아동,독거노인",동반 2인,
서울,1,"01,02,99",1층 깊이커피,126.9134894,서울 마포구 서교동 384-14,매일 10:00 ~ 24:00,경찰 공무원 소방공무원 20% 할인 ,1,없음,4035,3c1252ec44644f9cba06385689c737e6.jpg,깊이,2,,537,,37.55223793,"결식아동,독거노인,경찰 공무원 소방공무원 20% 할인 ",동반 1인,
서울,1,"01,99",2층,126.9209387,서울 마포구 서교동 405-17,오전11~익일 오전6시,초등~고등학교1학년까지만(학생증확인),1,연중무휴,4048,4921a1e8403349fda0b6b99fa0d2c3d6.jpeg,슈츄안,99,"본인+동반1인, 복지카드+학생증지참",575,,37.5503889,"결식아동,초등~고등학교1학년까지만(학생증확인)","본인+동반1인, 복지카드+학생증지참",
서울,2,1,지층 좌측호,126.9160515,서울 마포구 성미산로13길 89,평일 10~20시 토요일 11~20시 일요일 11~18,,1,매주 수요일,3974,40247e40ad334a96b07024f542cb71c6.jpg,네임리스커피,2,,750,,37.56481518,결식아동,동반 1인,
서울,99,"01,02",1층 꽃집,126.930336,서울 마포구 와우산로 161,12:00~19:00,,99,"월,화 휴무",4052,634580c512944e23beb723d85e9ac726.jpeg,블루밍부케,2,,360,오늘의꽃다발,37.55536391,"결식아동,독거노인",동반 1인,오늘의꽃다발
서울,99,"01,02",전원빌딩 2층 진짜파스타,126.9232713,서울 마포구 와우산로 64,화~일 11:30 ~ 21:00,,1,15:30~16:30 월요일 휴무,4067,NULL,진짜파스타,2,,30,전메뉴 2만원 이내 제공,37.55021997,"결식아동,독거노인",동반 1인,전메뉴 2만원 이내 제공
서울,1,1,2층 카페,126.9222762,서울 마포구 와우산로11길 9-10,12:00~20:00,,1,,4049,ac59c6bae10c41f78da082586d39363b.png,코코아트리,,,415,,37.54847247,결식아동,Nan,
서울,99,"01,02",101호 로샤뷰티,126.9296221,서울 마포구 와우산로29길 4-24,10:30-8:00,,99,매주 달라짐,4052,5f53446e345b47a49857023a4379eb96.jpeg,로샤뷰티,1,,1085,헤어 커트,37.5549238,"결식아동,독거노인",아이 본인만,헤어 커트
서울,99,1,2층 201호 두두리두팡,126.9078092,서울 마포구 월드컵로23길 18,매주 금토일 오후12시~18시(조기품절시 조기마감),,1,매주 월화수목 휴무,4011,6936d260e4bb449aab4f39b743517e7f.jpeg,두두리두팡,1,,56,1메뉴(케이크/제과 모두포함) 1음료,37.55709127,결식아동,아이 본인만,1메뉴(케이크/제과 모두포함) 1음료
서울,1,1,"kgit센터 1층 117,118호",126.8889823,서울 마포구 월드컵북로 402,평일 11시~9시,,1,,3925,52bf8fa2ef15446cb86a0afba33971c2.png,블리스버거상암점,2,,521,,37.58010775,결식아동,동반 1인,
서울,1,"01,02",kgit센터 지하1층 푸드코트 109,126.8889823,서울 마포구 월드컵북로 402,11:30~20:00,,1,토일휴무,3925,8c17b93226ee4dfdaecaf69e17a0675d.jpg,모데나,1,,642,,37.58010775,"결식아동,독거노인",아이 본인만,
서울,2,,전자회관 B1 피트니스플랜비,126.8883895,서울 마포구 월드컵북로54길 11,오전10~오후9시,,99,공휴일 휴무,3924,a251e38b79344ed4b7bb4bfb2bf05aa4.jpg,피트니스플랜비,99,청소년,749,,37.58088763,Nan,청소년,
서울,1,"01,02",218,126.9178974,서울 서대문구 가재울미래로 2,9시-18시,,2,,3709,NULL,아하하일본어,1,,448,,37.57442036,"결식아동,독거노인",아이 본인만,
서울,1,"01,02",1층,126.9131872,서울 서대문구 거북골로 150,오전10시새벽1시,,1,3시~4시,3690,3715e31d6e7c4fc694a5e8149e7cb01d.jpg,줄리앙와플and커피,1,,671,,37.57555558,"결식아동,독거노인",아이 본인만,
서울,2,1,1층 EYE OH,126.9273951,서울 서대문구 신촌로 1,10:00~21:00,,99,없음,3785,NULL,아이오안경원,1,,15,,37.55887396,결식아동,아이 본인만,
서울,99,"01,99",1층 JUNH,126.9288694,서울 서대문구 연희동 130-13,11-6pm,저소득층 복지누리카드소지자,2,월요일,3707,1ec0ddf5477e495599be286a3b26beea.jpeg,준에이치(JUNH),2,,915,원데이클래스,37.56735783,"결식아동,저소득층 복지누리카드소지자",동반 1인,원데이클래스
서울,99,1,1층,126.929991,서울 서대문구 연희로 89-8,오전11시~밤9시,,1,매주 일요일,3708,01787a4713cb404cbcc72e5f49180ffc.jpg,황카페,1,,875,"로제떡볶이, 음료",37.56643453,결식아동,아이 본인만,"로제떡볶이, 음료"
서울,99,1,1층 고스트요거트,126.9448747,서울 서대문구 이화여대길 52-15,월-금 11-19/토 12-19,,1,"14-15휴게시간/첫째주 토요일,일요일 및 공휴일 휴무",3765,NULL,고스트요거트 이대점,2,,529,요거트+콤비네이션 토핑,37.55933427,결식아동,동반 1인,요거트+콤비네이션 토핑
서울,1,1,1층,126.9457978,서울 서대문구 홍은동 48-106,11:00-22:00,,1,없음,3616,d11c3e0d92324dafaef953528248361b.jpg,싸움의고수,2,,63,,37.59387089,결식아동,동반 1인,
서울,1,1,지하 116호,127.0299709,서울 서초구 강남대로 321,오전11시-밤12시,,1,매주월요일 정기휴무,6627,d9c5db27967f4108bacc8a22625fdbbe.jpg,구슬함박 서초점,99,만19세 미만 청소년 및 아동,1013,,37.49155734,결식아동,만19세 미만 청소년 및 아동,
서울,99,1,1층,127.0415619,서울 서초구 강남대로12길 50,11시30~14시,,1,14시~17시,6779,1a398b9021244e6eb11ee23f97b2c2c8.jpg,해물과차돌박이 ,2,,819,점심단품메뉴,37.47081116,결식아동,동반 1인,점심단품메뉴
서울,99,"01,02",장금수부대찌개양재점 ,127.0409967,서울 서초구 강남대로30길 73-3,오전11시 오후9시30,,1,일요일  구정 신정  추석  전일 당일,6741,53491f2f56b5406c8307590061905b75.jpg,장금수부대찌개양재점 ,2,,44,부대찌개 ,37.48287579,"결식아동,독거노인",동반 1인,부대찌개 
서울,1,1,신사제2빌딩 101호 돈가스신사,127.0186323,서울 서초구 나루터로15길 6,평일 11:00-21:00 토요일 11:00-15:00,,1,"일요일, 국경일",6524,NULL,돈가스신사,1,,169,,37.51618262,결식아동,아이 본인만,
서울,99,1,하이브랜드 리빙관 지하1층  림돈,127.0369479,서울 서초구 매헌로 16,오전11시~오후8시,,1,매주 일요일,6771,5aa27dada9dc47e7a3f55da8b4df7362.png,림돈(돈가스),1,,1053,돈가스,37.46246735,결식아동,아이 본인만,돈가스
서울,1,"01,02",하이브랜드 지하1층 푸드코트내 113,127.0369479,서울 서초구 매헌로 16,09~20,,1,일요일휴무 14~16시 브레이크타임,6771,a162bf4bab1346a7bf8c7342b7f481ea.jpg,아이언그릴,1,,1069,,37.46246735,"결식아동,독거노인",아이 본인만,
서울,1,1,1층 101호 자판기가게,126.984171,서울 서초구 방배천로2안길 96,24시간,,1,없음,6677,535563bd853344e1a1e681ee5f33bddb.jpg,자판기가게,2,,556,,37.4812784,결식아동,동반 1인,
서울,,,럭스빌딩 6층,126.9980048,서울 서초구 서래로 17,,,2,,6581,NULL,원더스잉글리시아카데미,,,413,,37.49666677,Nan,Nan,
서울,99,1,1층 고스트요거트,127.0162371,서울 서초구 서초중앙로20길 37,월-금 10-19:30/토 11-19,,1,"14-15휴게시간/첫째주토요일, 일요일 및 공휴일휴무",6634,51fd163190084f8e9a62356733328acf.jpeg,고스트요거트 교대본점,2,,530,요거트+콤비네이션 토핑,37.49254068,결식아동,동반 1인,요거트+콤비네이션 토핑
서울,99,1,만석돼지갈비,127.0347489,서울 성동구 고산자로12길 2,11시반부터 10시,,1,없음,4744,4c4bc9de51bc4436852bf4a22bd4c8e4.jpg,만석돼지갈비,2,,612,"정심식사 2인분,저녁 삼겹또는갈비 2",37.56018581,결식아동,동반 1인,"정심식사 2인분,저녁 삼겹또는갈비 2"
서울,1,"01,02",카페 드 모나코,127.0388365,서울 성동구 고산자로2길 65,오전9시 ~ 오후 10시,,1,연중무휴,4745,NULL,카페 드 모나코,1,,1011,,37.55619853,"결식아동,독거노인",아이 본인만,
서울,99,1,투썸플레이스  금호하이리버점,127.0245531,서울 성동구 금호로 105,8~23시,,99,없음,4728,fe855ad33ae64f6abe0e246a43acd983.jpg, 투썸플레이스  금호하이리버점,1,,83,샌드위치류. 브레드류. 음료류. 케익,37.55237636,결식아동,아이 본인만,샌드위치류. 브레드류. 음료류. 케익
서울,1,1,상가152동 비1층 비106호,127.0263479,서울 성동구 무학로 33,10:00~21:00,,1,매주 월요일,4702,6aad57af5ffa49cfb0fbc85bd7708efd.jpg,돈카츠마켙왕십리점,2,,696,,37.56916416,결식아동,동반 1인,
서울,,1,1층 쑤쑤타이,127.0490942,서울 성동구 상원1길 12,,,1,,4779,NULL,쑤쑤타이,1,,658,,37.54497088,결식아동,아이 본인만,
서울,1,"01,02,99",성원상떼뷰오피스텔 107호 루트비커피,127.0626068,서울 성동구 아차산로15길 10,07:00 ~ 18:30,"소방관 1인 무료, 추가인원50%할인",1,일요일 (임시휴무있음),4798,d6cd6ec5b9634719b09c62427c8b4cb2.png,루트비커피 성수점,1,,848,,37.54369624,"결식아동,독거노인,소방관 1인 무료, 추가인원50%할인",아이 본인만,
서울,99,1,vip빌딩 2층,127.0306507,서울 성동구 왕십리로 353,11:00 ~ 21:00,,99,없음,4710,aa6c3078c77746f2ab9a91f7304b53a6.jpg,어반그라운드헤어 상왕십리점,1,,619,쥬니어 커트,37.56363389,결식아동,아이 본인만,쥬니어 커트
서울,99,"01,02",1층,127.0330712,서울 성동구 왕십리로21가길 1,11:00~23:00,,1,없음,4715,NULL,더짜글왕십리점,2,,988,"짜글이1인분,짜글이2인분",37.56105242,"결식아동,독거노인",동반 1인,"짜글이1인분,짜글이2인분"
서울,99,1,Golden House 1층,127.0303206,서울 성북구 고려대로24가길 13-2,PM 5:00 ~ AM 1:00,,1,정기휴무 없음.,2856,8629c0845dc94935b2d489d9ae1de841.png,주식회사 늘,1,,429,식사류 모든 품목,37.58533768,결식아동,아이 본인만,식사류 모든 품목
서울,99,1,1층 대연생고깃간,127.0611484,서울 성북구 돌곶이로22나길 29,오전9시30분~ 저녁9시30분,,1,,2784,348744d6fc504e8e8825ebf5f2f1a965.jpg,대연생고깃간,1,,1079,모든 고기 20.000원 상당,37.60920605,결식아동,아이 본인만,모든 고기 20.000원 상당
서울,99,"01,02",지층 사계절치킨,127.0189355,서울 성북구 동소문로24길 31,오전10시부터 새벽2시까지,,1,앖음,2845,3de914eca6f4496eb9c718a21e0a2097.jpg,대한푸드(사계절치킨),2,,346,치킨 세가지 후라이드간장 양념,37.59226157,"결식아동,독거노인",동반 1인,치킨 세가지 후라이드간장 양념
서울,99,"01,02",1층,127.0193769,서울 성북구 보문로34길 72-4,오전 10시 30분~ 밤 12시,,1,매주 월요일,2849,b7c3a1230d4f45fab4e9801c4897f731.jpg,나이스 샌드위치,99,아이 본인과 친구들 사주고 싶을때  ,298,모든 품목이고 간식도 챙겨 보낼께요,37.59097109,"결식아동,독거노인",아이 본인과 친구들 사주고 싶을때  ,모든 품목이고 간식도 챙겨 보낼께요
서울,1,"01,02,99",1층,127.0154451,서울 성북구 서경로 37,11:00 ~ 21:30 (마지막 주문 20:30),군인 경찰,1,"평일 15:00 ~ 17:00 신정,명절당일",2716,08949426e4244223b94f8a1921d30975.png,하오하오츠,2,,240,,37.60712437,"결식아동,독거노인,군인 경찰",동반 1인,
서울,99,,근린상가2동 2103호(108동상가),127.028784,서울 성북구 숭인로 50,11:00~21:00,,1,15:00~16:30,2727,39af29003b2a4e18b73c8bb2c7ec3c15.jpg,72420미아사거리점,2,,147,쌀국수 및 볶음밥,37.61198667,Nan,동반 1인,쌀국수 및 볶음밥
서울,99,1,지하1층,127.029729,서울 성북구 안암동5가 104-30,9시부터 새벽3시,,99,없습니다.,2856,NULL,닥터브이 코인노래연습장,1,,344,"의류,신발사업도하고있습니다 신발,옷",37.58396192,결식아동,아이 본인만,"의류,신발사업도하고있습니다 신발,옷"
서울,2,"01,99",1층,127.0429812,서울 성북구 장월로1길 111,화수목금 12:30~7시(제품 소진시 조기마감),기초수급가정아동,1,토일월,2752,387a290a2eb44ae881e327e20ecf934a.jpg,샤롱샤롱,1,,257,,37.604307,"결식아동,기초수급가정아동",아이 본인만,
서울,99,1,1층,127.0521737,서울 성북구 장위동 66-323,오전11시30분 ~ 오후9시,,1,"오후2시~오후5시 재료준비시간, 마지막주문 8시30분",2771,af77a86280214cf6a3cbc0b16c6d34fe.gif,서민스시,2,,506,"점심메뉴 2인 지급 26,000원상당",37.60957472,결식아동,동반 1인,"점심메뉴 2인 지급 26,000원상당"
서울,1,"01,02",상가1층 쌀똑핫도그,127.0421197,서울 성북구 하월곡동 227,11:00-23:0,,1,연중무휴,2751,45dcdccc710242ceabee6556e7b3ec8b.jpg,쌀똑핫도그 월곡직영점,2,,501,,37.60327757,"결식아동,독거노인",동반 1인,
서울,99,"01,99",기와집갈비,127.0522897,서울 성북구 화랑로25길 18,오전11~오후10,독거노인,1,매주 일요일,2771,NULL,발효명가기와집갈비,2,,129,식사류,37.60945421,"결식아동,독거노인",동반 1인,식사류
서울,1,1,102동119호 필라멘,127.1204362,서울 송파구 가락동 80,11-14.30  16:30-21:00,,1,15:00-16:30,5718,52e8bd07e7dd40cd9693f2f1d7dffa29.jpg,필라멘,1,,183,,37.49506449,결식아동,아이 본인만,
서울,1,"01,02",1층 카페시아 아틀리에,127.1236663,서울 송파구 문정로1길 34,10:00 ~ 20:00,,1,없음,5805,73a0fe1b3bf04b3ca3c0664d50a79a1f.jpg,카페시아아틀리에,1,,118,,37.48916353,"결식아동,독거노인",아이 본인만,
서울,99,1,106호,127.0985952,서울 송파구 삼학사로12길 14,10:00 ~ 22:00,,1,,5679,04fa263d79684337ab3d43ff74869011.jpg,달떡볶이 잠실점,2,,620,"초승달세트(떡볶이,순대,튀김,음료)",37.50154387,결식아동,동반 1인,"초승달세트(떡볶이,순대,튀김,음료)"
서울,2,1,2층 입분식가정집,127.1104017,서울 송파구 송파동 51-4,11:30~21시,,1,없음,5619,NULL,입분식가정집,3,,321,,37.50999855,결식아동,동반 2인,
서울,99,"01,02,99",101호,127.1103261,서울 송파구 송파동 51-8,10:00 -22:00,65세이상 어르신,1,연중무휴,5619,a68ce74d494045d2b973174b6cb84dab.jpg,천향마라탕잠실점,3,,507,마라탕,37.50988915,"결식아동,독거노인,65세이상 어르신",동반 2인,마라탕
서울,99,1,장미상가 A동 314호,127.0992805,서울 송파구 신천동 7,8-Oct,,3,명절 외 연중무휴,5504,3540ca9f394847518e118822c2cb4e36.jpg,헤어매직,1,,418,컷트 무료,37.51888493,결식아동,아이 본인만,컷트 무료
서울,2,1,현대백조아파트상가 a동 102호,127.1292595,서울 송파구 오금동 11,오후 3시~새벽 1시,,1,없음,5652,1ff26b78ea274cc1be1bd18d8b206cb4.jpg,1974,2,,818,,37.50939106,결식아동,동반 1인,
서울,99,1,라라브레드 1층,127.1091047,서울 송파구 오금로16길 4,10:00 ~ 21:00,,1,x,5618,NULL,라라브레드 잠실점,1,,655,직원선택 2종,37.51113268,결식아동,아이 본인만,직원선택 2종
서울,99,"01,02",상가동 103호,127.1022358,서울 송파구 올림픽로35가길 10,오전8:00 ~ 오후7:00,,1,주말 및 공휴일 휴무,5510,7c431ea4c25f4855980c55920e5b56e1.jpg,티테리아 (TEA TERIA),1,,992,"음료 1잔 (4,000원 기준)",37.51691299,"결식아동,독거노인",아이 본인만,"음료 1잔 (4,000원 기준)"
서울,99,"01,02,99",1층 북경짜장,127.1416298,서울 송파구 위례광장로 120,10:00~20:30,정말 돈없고 배고픈 사람들,1,없음,5852,2a126e2cc2904fc69dbdbfd4d72fc803.jpg,북경짜장 위례신도시점,1,,598,"짜장, 짬뽕, 볶음밥,1인탕수육등등",37.47501456,"결식아동,독거노인,정말 돈없고 배고픈 사람들",아이 본인만,"짜장, 짬뽕, 볶음밥,1인탕수육등등"
서울,2,"01,02",1층 105호 서서울,126.8313073,서울 양천구 남부순환로58길 33,오전9시~저녁10시,,1,연중무휴,7915,e42543fe10864cb88fa05b06daccfaed.jpg,서서울,2,,262,,37.52917527,"결식아동,독거노인",동반 1인,
서울,,,B1,126.8706157,서울 양천구 목동서로 213,,,1,,7995,NULL,한옥안동국시,,,85,,37.52801699,Nan,Nan,
서울,99,"01,02","1층 성찬푸드/족발,냉면,짜글이",126.8355991,서울 양천구 신월동 122-15,오전11시30분~익일 02시 까지,,1,없음,7923,beadedd2f92e4098a226e9e643631c06.jpg,성찬푸드,99,그날 상황에 따라 달라질수 있습니다,260,냉면류,37.53011521,"결식아동,독거노인",그날 상황에 따라 달라질수 있습니다,냉면류
서울,1,"01,02",104호 유캔두잇신월점,126.8333616,서울 양천구 신월동 22-19,오전10시~밤10시,,1,연중무휴,7903,NULL,유캔두잇 신월점,1,,1065,,37.54073459,"결식아동,독거노인",아이 본인만,
서울,99,"01,02,99",1층 피자베이,126.8600582,서울 양천구 신월로 351,오전 11시부터 밤 12시까지,식사를 잘못하는 불우한이웃!!,1,,8021,a2d2c05bfa7548a19dc37c3e7b87247b.jpg,피자베이본점,99,피자 한판으로 제공 ,184,오늘의요일피자 와 음료수 증정,37.52216881,"결식아동,독거노인,식사를 잘못하는 불우한이웃!!",피자 한판으로 제공 ,오늘의요일피자 와 음료수 증정
서울,99,1,1층,126.8584534,서울 양천구 신월로36길 3-1,12시~24시,,1,연중무휴,8086,NULL,푸라닭신정1동점,1,,546,푸라닭치킨,37.5212686,결식아동,아이 본인만,푸라닭치킨
서울,1,1,601호 엘리트태권도장,126.8325647,서울 양천구 신정이펜2로 22,13시30분~21시,,2,"토,일,공휴일",8049,40bc632c9f0d4ecc9300b24388d3cfaa.jpg,엘리트태권도,1,,264,,37.51289569,결식아동,아이 본인만,
서울,99,1,1층,126.8971809,서울 영등포구 당산로35길 6,11:00 ~ 22:00,,1,"공휴일, 일요일 (코로나로 인해 토요일 당분간 휴무)",7219,NULL,당산돈,1,,189,김치찌개,37.52898745,결식아동,아이 본인만,김치찌개
서울,2,1,1층식당,126.898142,서울 영등포구 도림동 232-2,11시~~9시,,1,3시~5시주말휴무,7374,NULL,쿠이대,1,,412,,37.50715635,결식아동,아이 본인만,
서울,99,1,모두의주방 5호 홍대돈부리,126.9049457,서울 영등포구 도신로29사길 3,09:00-20:50,,1,연중무휴,7368,c8d89272273b4e8e9279f1d9ca0e8bf0.jpg,홍대돈부리 영등포점,2,,58,"가츠동, 믹스가츠동, 가라아게동, 규",37.51018327,결식아동,동반 1인,"가츠동, 믹스가츠동, 가라아게동, 규"
서울,2,"01,02",모두의주방 1호 까사피에스타,126.9049457,서울 영등포구 도신로29사길 3,09:00-20:50,,1,"연중무휴, 16:00-17:00 쉬는시간",7368,d2bc1a7e929540f881a4418f3d72f270.jpg,까사피에스타 영등포점,2,,59,,37.51018327,"결식아동,독거노인",동반 1인,
서울,1,"01,02",1층 직구삼,126.9045513,서울 영등포구 디지털로66길 8,11:00에서 새벽1시,,1,연중무휴,7439,b1a63f49cc974787a33a5774f3bfd301.jpg,직화삼겹직구삼 대림신길점,1,,268,,37.49252558,"결식아동,독거노인",아이 본인만,
서울,1,1,1층 브로스키친,126.891781,서울 영등포구 선유동1로 6-4,25-Nov,,1,없음,7263,af0fe8516c2349a99ce6556a055a519c.jpg,브로스키친,99,어려운아이들과 어려운 가정에게,461,,37.52246613,결식아동,어려운아이들과 어려운 가정에게,
서울,1,1,롯데마트 1층 샐러디,126.891572,서울 영등포구 선유로 138,오전11시-오후8시,,1,오후3-5시(변동있음),7255,NULL,샐러디 롯데마트서울양평점,1,,496,,37.52606589,결식아동,아이 본인만,
서울,99,,105호 갤러리딤,126.8868154,서울 영등포구 선유로3길 10,11:00~19:00,,3,주말 및 공휴일,7285,bd5c4337e359450fbca0cef94c0295b5.jpg,디와이코퍼레이션(GalleryDIM),2,,194,제로웨이스트 제품 or  체험,37.51610031,Nan,동반 1인,제로웨이스트 제품 or  체험
서울,1,"01,02",1층,126.9183635,서울 영등포구 신풍로 110,09~21,,1,없음(로테이션),7432,5acdcc30be7b4e8783e11f27c07196fd.jpg,신길점추오정남원추어탕 ,2,,928,,37.499763,"결식아동,독거노인",동반 1인,
서울,99,1,지하1층 113호 더복희네,126.9181067,서울 영등포구 의사당대로 26,오전11:00~오후10:00,,1,없음,7236,c91cfffcd1d74a5f9e5e6fffb2c32785.jpg,더복희네,2,,122,1인 1메뉴 제공가능합니다.,37.52653714,결식아동,동반 1인,1인 1메뉴 제공가능합니다.
서울,1,1,107호,127.0078018,서울 용산구 독서당로 22,09:00~20:00,,1,일요일,4410,5652a6fe6c32462c961681b83236348d.jpg,본도시락 한남점 ,2,,445,,37.53016316,결식아동,동반 1인,
서울,99,1,805호,126.9677763,서울 용산구 새창로 217,6:30-22:00,,99,"법정공휴일, 주말",4376,8595f5ee5594457aaae9a3c8228ca59d.jpg,아힘사 요가&명상,2,,29,요가 일반 수련,37.53021668,결식아동,동반 1인,요가 일반 수련
서울,99,"01,02,99",전자랜드 본관 5층 B501호,126.9595585,서울 용산구 청파로 74,11시~20시,군장병,1,없음,4372,0bd7425eaaf9488eb1e45bcc16de150d.png,더트레인,2,,295,음료 및 기차모디오라마 10분 무료,37.53278886,"결식아동,독거노인,군장병",동반 1인,음료 및 기차모디오라마 10분 무료
서울,2,1,용산역내인포메이션앞꽃집,126.9647415,서울 용산구 한강대로23길 55,08~23,,99,연중무휴,4377,abef114865004ac9af338c6da174d31c.jpg,인스타일,1,,889,,37.5297718,결식아동,아이 본인만,
서울,2,1,1층 얌샘김밥,126.9716704,서울 용산구 한강대로77길 18,07시 ~ 24시,,1,명절 휴무,4321,NULL,얌샘김밥 남영점,1,,113,,37.54207521,결식아동,아이 본인만,
서울,1,1,1층 ,126.911789,서울 은평구 갈현동 509-1,09~19시,,3,,3325,08fbc2ac75834f45a21ed10180076746.jpg,선경하우징,1,,812,,37.61519564,결식아동,아이 본인만,
서울,99,1,1층,126.9226733,서울 은평구 서오릉로 72,아침 10시~ 저녁 9시반,,1,매주일요일,3395,NULL,일월만두,1,,764,아이가 먹고싶은거,37.60685272,결식아동,아이 본인만,아이가 먹고싶은거
서울,2,1,1층 로드락후라이드,126.9104816,서울 은평구 신사동 7-24,14시-02시,,1,없음,3422,a35893e39cc24959ad269fadd24a2917.png,로드락후라이드 은평신사점,2,,332,,37.60144952,결식아동,동반 1인,
서울,99,"01,02,99",514동 상가 105B,126.936819,서울 은평구 연서로48길 11,10시부터 2시,독거노인,99,없음,3308,da9578db093a418ea1d1cb73ce509ca1.jpg,달아요,2,,919,과일,37.6377915,"결식아동,독거노인,독거노인",동반 1인,과일
서울,1,"01,02,99",1층 카페단발소녀,126.9197235,서울 은평구 응암로 285,11~21,국가유공자,1,,3454,cfd1a1784ae04d8097b1242485df2a8f.jpg,단발소녀,1,,81,,37.5971843,"결식아동,독거노인,국가유공자",아이 본인만,
서울,99,1,1층 108호 갓츠킹 가마솥돈까스 진,126.9185725,서울 은평구 진관1로 21-39,11:00~21 :00/ 라스트오더 20:00,,1,,3311,57e564f070f243e0a57f4d688699fcb5.png,갓츠킹 가마솥돈까스 진관점,1,,730,아이가 먹고싶은거,37.63386256,결식아동,아이 본인만,아이가 먹고싶은거
서울,1,1,911동103호 갈현동할머니떡볶이 ,126.9209327,서울 은평구 진관3로 67,10:30~19:30,,1,"일,월요일",3301,297b1cb2c49849dfb930a8f01006dfc1.jpg,갈현동할머니떡볶이 ,1,,441,,37.64276446,결식아동,아이 본인만,
서울,1,1,1층,126.9672412,서울 종로구 옥인길 28,24시간,,99,없음,3034,1f8123a650ae43529c4594ee4080c07f.jpg,콤콤오락실,1,,805,,37.58097324,결식아동,아이 본인만,
서울,1,1,104-1101,126.9797758,서울 종로구 율곡로 6,10:30~19:30,,1,일요일 격주 휴무,3142,c1caf2782c6148cc890a984add62d63c.png,부산아지매국밥 트윈트리타워점,2,,505,,37.57545386,결식아동,동반 1인,
서울,99,1,2층연혜인참치,127.0103483,서울 종로구 종로 286,오전10:00~오후10:00까지,,99,15:00~16:30까지,3119,NULL,연혜인참치,2,,692,초밥.매운탕(대구.알탕.회덮밥.알밥,37.57085836,결식아동,동반 1인,초밥.매운탕(대구.알탕.회덮밥.알밥
서울,1,1,1층 102호 넘버나인,127.0147848,서울 종로구 창신동 436-64,밤12-낮12시,,99,일요일,3120,54483236fdfd45cb884ff43df8b00bf0.jpeg,"레기돌(넘버나인,해피필링)",1,,310,,37.57011375,결식아동,아이 본인만,
서울,1,1,2층,126.9615712,서울 종로구 창의문로11길 23,11:30 - 21:00,,1,15:00 - 16:30,3022,6abff8f6f10d46a8942d87829dddd1cf.jpeg,레이지버거클럽,3,,630,,37.59338974,결식아동,동반 2인,
서울,1,"01,02",글로리아타운 A동 107호,126.9690062,서울 종로구 평창문화로 75,12:00~23:30,,1,"구정, 추석",3009,NULL,교촌치킨평창점,2,,783,,37.60686264,"결식아동,독거노인",동반 1인,
서울,1,"01,02",1층,126.9681386,서울 중구 만리재로 209,11시~10시,,1,3시~5시,4508,ec19ca298eeb4d7683ad0daf62716e26.jpg,공일부엌,3,,736,,37.55606592,"결식아동,독거노인",동반 2인,
서울,99,"01,02,99",지하1층,127.0931941,서울 중랑구 겸재로50길 53,11:00~23:00,독거노인,1,없음,2199,9afcff159785451ebe1b213e3e4865ac.jpg,소소한얼,3,,721,식혜.수정과,37.58907805,"결식아동,독거노인,독거노인",동반 2인,식혜.수정과
서울,1,"01,02",1층,127.0810183,서울 중랑구 공릉로12가길 29,평일 1시 - 12시  주말 11시 - 12시,,1,없음,2019,NULL,쌀똑핫도그 태릉점,1,,25,,37.61727613,"결식아동,독거노인",아이 본인만,
서울,1,"01,99",1층,127.0741511,서울 중랑구 동일로157길 65,11:00-20:00,독거노인 어르신,1,매주 수요일 휴무,2008,ccb98eb56ffe4cb588c2aef655a33adf.jpeg,카페더메뉴얼,99,가족이나 친구들과 함께 와도 좋습니다,126,,37.60933564,"결식아동,독거노인 어르신",가족이나 친구들과 함께 와도 좋습니다,
서울,99,1,함평국밥,127.0892169,서울 중랑구 봉우재로33길 73,오전 11:30오픈 오후 10시 마감,,1,일요일,2149,6460347d4dbf46ec9560e483a2aefbd4.jpeg,함평국밥,2,,109,국밥/비빔밥,37.59547032,결식아동,동반 1인,국밥/비빔밥
서울,1,1,네네치킨,127.0958495,서울 중랑구 신내로 135,18:00~24:00,,1,매주월요일,2026,788695d0e08a4668b5e967c2dd7637e1.jpg,네네치킨신내1점,1,,319,,37.6113848,결식아동,아이 본인만,
서울,99,"01,02",1층,127.0972138,서울 중랑구 신내로10길 29,10:00 ~22:00,,1,15:00 ~16:00,2069,b50f5e8fd0bf42659436f976ee75cc16.jpg,마석감자탕,1,,911,뼈해장국 / 돈가스 / 뚝배기불고기,37.60451914,"결식아동,독거노인",아이 본인만,뼈해장국 / 돈가스 / 뚝배기불고기
서울,1,"01,02",1층 Breeze,127.0986946,서울 중랑구 용마산로100길 7,평일 09시 ~ 18시,,1,"매주 일요일, 첫째/셋째 토요일",2184,cf408ef5ebe24e688ead4450811d6aa7.jpeg,브리즈,2,,376,,37.59161095,"결식아동,독거노인",동반 1인,
경기,1,1,원흥힐사이드파크 테그42 고양도래울점,126.8699694,경기 고양시 덕양구 도내동 951,10:00~21:00,,1,,10551,a09d998281984e709f0de35f7e89526e.png,테그42 고양 도래울점,2,,439,,37.6359092,결식아동,동반 1인,
경기,1,1,보광로188,126.9108976,경기 고양시 덕양구 벽제동 563-3,오전11시~저녁11시,,1,무,10267,4a929d71fad24f959bba8fa0b33a2f47.jpg,캠핑하고싶닭 ,2,,886,,37.73111028,결식아동,동반 1인,
경기,99,1,1층,126.8885586,경기 고양시 덕양구 신원로2길 62,11시~24시,,1,월요일 휴무,10570,NULL,델리지오소,3,,35,모든 파스타 제공,37.66100006,결식아동,동반 2인,모든 파스타 제공
경기,99,1,1층 다비치안경,126.8351966,경기 고양시 덕양구 충장로 140,10:00 ~ 21:00,,99,명절 당일 휴무,10495,c043a4f3287647a19c711dd3d97bf2de.jpg,다비치안경 행신점,1,,849,안경테+안경렌즈,37.62473958,결식아동,아이 본인만,안경테+안경렌즈
경기,99,1,"복합상가 2층, 작심스터디카페",126.8321788,경기 고양시 덕양구 화정동 1000-5,오전 08:30 ~ 익일 01:30,,2,,10503,02c517e57c244391b7ae6d6a4c636882.jpeg,작심스터디카페 고양화정점,1,,905,1개월 이용권,37.63010628,결식아동,아이 본인만,1개월 이용권
경기,1,1,1층,126.8325956,경기 고양시 덕양구 화중로130번길 5-11,오전11시~오후10시,,1,매주 월요일 휴무,10477,bbd1bb991a0e4eca86012d0320c0d5cb.png,마라영웅 화정점,1,,959,,37.63911924,결식아동,아이 본인만,
경기,1,1,1층 한남동 그집 백석역점,126.7885863,경기 고양시 일산동구 강송로73번길 53-11,17:00~02:00,,1,매주 월요일,10446,NULL,한남동그집 백석역점,3,,42,,37.64461666,결식아동,동반 2인,
경기,2,1,1층 아이노스,126.7797645,경기 고양시 일산동구 산두로213번길 22,10-Oct,,1,매주 일요일,10358,ec5058e863434bb48fbb3b5f108957d4.jpeg,아이노스,2,,881,,37.67460163,결식아동,동반 1인,
경기,99,1,1층 ,126.7991233,경기 고양시 일산동구 숲속마을로 50-42,11:30~22:00,,1,연중무휴,10306,a8d836eacb2d4c4ab3a32e2e5639eec5.jpg,9라파부대찌개 본점,1,,636,"9라파부대찌개, 제주생고기돈까스 ",37.66792056,결식아동,아이 본인만,"9라파부대찌개, 제주생고기돈까스 "
경기,99,1,101-1호,126.7664578,경기 고양시 일산동구 장항동 752,수 - 일 낮 12시 - 저녁 8시,,1,"월, 화",10401,c6a35a2fe71148bd8e34b83abda7f995.jpg,몽실몽실 케이크,1,,478,케이크,37.66014749,결식아동,아이 본인만,케이크
경기,1,1,1층,126.7781321,경기 고양시 일산동구 정발산동 1131,오전12시30분~오후11시30분,,1,매주 월요일,10357,2f7c69a92700437581f969aa66cd7fe3.png,피자1989정발산점 ,1,,402,,37.67443765,결식아동,아이 본인만,
경기,99,1,웨스턴돔A 3층,126.7720388,경기 고양시 일산동구 정발산로 24,6-Nov,,99,"월,수",10403,b59be36081bc4d7b95cbb6218655e6f1.jpeg,세븐스 예나,1,,407,커트,37.65589641,결식아동,아이 본인만,커트
경기,1,"01,02",B동 115 카페메르시,126.7737861,경기 고양시 일산동구 정발산로42번길 24,평일 11-19시 주말 12-19시,,1,,10403,72fe02d00dac45db973d84f3a1a4d2b7.jpg,카페메르시,1,,907,,37.65618367,"결식아동,독거노인",아이 본인만,
경기,2,1,105호 조은약국,126.7708556,경기 고양시 일산동구 중앙로1261번길 55,10-21(평일) 10-17(토요일),,3,일요일 및 공휴일,10402,6bc2e8ebf7d04ae1ad0fa86175bd66b5.jpeg,조은약국,1,,340,,37.65758391,결식아동,아이 본인만,
경기,1,1,상가1동120호,126.7498934,경기 고양시 일산동구 태극로 8,24시간,,1,없음,10394,ebe1470a07874cde82d541cd913fb787.jpg,집어가 킨텍스원시티점,2,,476,,37.66397143,결식아동,동반 1인,
경기,2,1,1층 핸드메이드브런치카페 ,126.7161943,경기 고양시 일산서구 가좌로 129,9:30~20:00,,1,월요일,10209,b388bffaa1e34642aa3724d75fc8195b.jpg,핸드메이드브런치카페 ,2,,779,,37.68654067,결식아동,동반 1인,
경기,1,1,레이킨스몰2층 228호,126.7516469,경기 고양시 일산서구 대화동 2602,11:00-8:30,,1,연중무휴(임시휴무 네이버에 공지),10391,NULL,수라간,1,,659,,37.66799467,결식아동,아이 본인만,
경기,99,"01,02",1층 드림라운지,126.7545475,경기 고양시 일산서구 성저로 68,"10:00~22:00 (금,토 : ~23:00)",,3,매주 수요일 휴무,10368,47de6044bad3427486503048b7779054.png,드림라운지,1,,712,대관시-카페음료 & 일부 콘텐츠 무료,37.68490596,"결식아동,독거노인",아이 본인만,대관시-카페음료 & 일부 콘텐츠 무료
경기,1,1,105호 ,126.7644833,경기 고양시 일산서구 일산로 576,11:00-22:00,,1,,10374,a18612f411854f488f1b993978cddb4a.jpg,츄러스1500일산후곡점,2,,707,,37.67949901,결식아동,동반 1인,
경기,1,1,107호 샐러디,126.7627988,경기 고양시 일산서구 중앙로 1413,09:30-20:30,,1,연중무휴,10386,NULL,샐러디 주엽역점 ,1,,709,,37.66903726,결식아동,아이 본인만,
경기,1,1,303호 작심스터디카페,126.7676984,경기 고양시 일산서구 탄현동 1655,08:00-02:00,,2,없음,10248,050a612287314237a4ca7dc8ba6054b7.jpg,작심스터디카페일산탄현점,99,고등학생만가능 (중학생은연락주세요),1032,,37.70219013,결식아동,고등학생만가능 (중학생은연락주세요),
경기,99,1,현해프라자 107호,126.7539684,경기 고양시 일산서구 하이파크2로 42,09:00~21:00,,1,매주 일요일 휴무,10234,6acfab4e821e41a7bb2b5a85037901bf.jpg,이샘반찬,1,,57,"반찬,국",37.69906825,결식아동,아이 본인만,"반찬,국"
경기,99,1,든든한병원 1층101호 죽이야기,126.7559165,경기 고양시 일산서구 하이파크2로 60,08:00~20:00,,1,매주 일요일,10234,38fba2ac99c24a65b09fe0ea96cb1921.jpg,죽이야기 든든한병원점,1,,573,야채죽,37.69909546,결식아동,아이 본인만,야채죽
경기,99,1,1층 대디스오피스,126.754701,경기 고양시 일산서구 하이파크3로 6,11:00-22-20,,1,3:00-4:30,10236,ba494d77a34d4d8db7995c42a0042b26.jpeg,대디스오피스,99,"대상자본인(결식아동, 소방관)",75,레귤러피자 무료,37.692547,결식아동,"대상자본인(결식아동, 소방관)",레귤러피자 무료
경기,2,1,서편2맞이방화훼점,126.8848772,경기 광명시 광명역로 21,10:00~21:00,,99,연중무휴,14347,92adc1c2f6354f9f803603d6ec286938.jpg,밀알플라워,1,,966,,37.41636356,결식아동,아이 본인만,
경기,99,1,광명무역센터 b동 112호,126.889187,경기 광명시 일직로 72,11시30분~16시,,1,"일요일,방문전 꼭 전화하고 오세요 조기마감을 자주해요",14348,5761f0b06a224bb0a30911e60380b13e.jpg,도톰카츠 광명점,1,,269,등심카츠,37.42003591,결식아동,아이 본인만,등심카츠
경기,,,동양아파트 상가동,126.8869172,경기 광명시 하안로 196,,,1,,14313,0aa97aee9da64d799fc93a6de662666d.jpg,뚜레쥬르 소하동양점,99,소방관,874,,37.45464833,Nan,소방관,
경기,99,1,1층 김찌개,127.2518853,경기 광주시 경안안길 5,오전11시~오후11시,,1,매주월요일 휴무,12755,79400b8e34f943a6822d2387e0065a3f.jpg,김찌개,1,,350,찌개 또는 짜글이 1인분,37.41450783,결식아동,아이 본인만,찌개 또는 짜글이 1인분
경기,1,1,1층 명랑부대찌개,127.2550912,경기 광주시 문화로 38,10시 22시,,1,없음,12760,859074ecde65408593693b693b118ec8.jpg,명랑부대찌개 경안점,2,,550,,37.40707874,결식아동,동반 1인,
경기,99,"01,02",1층 오케이컴퓨터,127.2513111,경기 광주시 통미로 88,09:00-18:00,,99,일요일,12739,f5eb6810d6bc432baf9c420799f56e41.png,K.com,1,,280,무상수리 및  리뉴얼 pc 지원,37.41687152,"결식아동,독거노인",아이 본인만,무상수리 및  리뉴얼 pc 지원
경기,99,"01,02",1층 브리드로스터스 카페,127.237687,경기 광주시 회안대로 599,평일 am9 - pm9 / 일 am12 - pm7,,1,,12748,1e2fe488ba4d40f6aadf485380a09268.jpg,브리드로스터스,2,,230,음료,37.40641554,"결식아동,독거노인",동반 1인,음료
경기,2,1,1012호 올리브(창고),127.1415797,경기 구리시 건원대로34번길 27,평일  am 11:00~ pm 19:00,,3,"토,일 휴무",11921,15b3d6f3e0574f089ac4bb374ac55d42.jpeg,Olive 올리브,1,,267,,37.60482393,결식아동,아이 본인만,
경기,1,1,파스타아미고,127.1490143,경기 구리시 벌말로70번길 67,11:00~21:00,,1,평일 15:20~16:50 (브레이크타임),11960,NULL,파스타아미고,2,,47,,37.58535545,결식아동,동반 1인,
경기,99,"01,02",유월의정원 꽃집,126.9356912,경기 군포시 곡란로8번길 6,11:00~20:00(토요일~18:00),,3,일요일 휴무,15801,NULL,유월의 정원,1,,618,꽃다발,37.37278392,"결식아동,독거노인",아이 본인만,꽃다발
경기,1,1,1층 프랑킨숯불양념구이치킨,126.9423351,경기 군포시 번영로 602,오전11시~새벽2시,,1,,15831,c9f6eff167ed48dba21a1520239773f6.jpg,프랑킨숯불양념구이치킨,1,,681,,37.36278226,결식아동,아이 본인만,
경기,2,"01,99",105-1호,126.929995,경기 군포시 산본천로 56,8:30~19:30,,1,,15865,NULL,테그42,1,,108,,37.3604095,"결식아동,",아이 본인만,
경기,99,1,3층 싸커코어,126.7066359,경기 김포시 금포로 1117-20,12:00~24:00,,2,법정공휴일,10092,fdef4ed80904467ba4cfd5bac457652e.jpg,싸커코어,1,,172,축구교육지도,37.64529196,결식아동,아이 본인만,축구교육지도
경기,1,1,1층 128호 직구삼,126.6706554,경기 김포시 김포한강1로78번길 7,오전11시 ~ 오후11시,,1,없음,10079,25ca1244180a4fe9aeb66dcd766c6724.jpeg,직구삼 김포장기점,2,,353,,37.64486977,결식아동,동반 1인,
경기,1,1,106호몽쁘띠,126.662923,경기 김포시 김포한강2로 262,오전10.30~오후7시,,1,매즌 토.일.공휴일,10082,dc45dc6814d74c4c8fcfc325bb3755c4.jpg,몽쁘띠,2,,72,,37.64818299,결식아동,동반 1인,
경기,99,1,라베니체마치에비뉴2차 1층 105호,126.67961,경기 김포시 김포한강2로23번길 72,평일 17:00~24:00  주말 12:00~24:00,,1,주말 15:00~17:00 휴무 매주 월요일휴무,10090,5678e5fdac954d6cbaca53e73295c28c.jpeg,두리상회,2,,816,파스타&피자,37.64018635,결식아동,동반 1인,파스타&피자
경기,99,1,,126.6438564,경기 김포시 김포한강8로 169,11:30~22:00,,1,15:00~17:30,10068,b319082051334b8a9832e20584518fd8.jpg,스시호세,1,,713,초밥,37.63761452,결식아동,아이 본인만,초밥
경기,1,1,1층 피자이탈리 구래점,126.6239424,경기 김포시 김포한강9로115번길 8-13,11:00~익일 1:30,,1,둘째 넷째 월요일,10071,NULL,피자이탈리 구래점,1,,473,,37.64786282,결식아동,아이 본인만,
경기,99,2,415호 카페 페브,126.6250439,경기 김포시 김포한강9로75번길 190,11:30~20:30,,1,매주 화요일,10071,2ef07bd5201a47ff933e81a1d1e8d2be.jpg,페브,99,아이 본인 + 형제 자매 1인,158,디저트 1개 + 음료 1잔,37.64503833,독거노인,아이 본인 + 형제 자매 1인,디저트 1개 + 음료 1잔
경기,99,,101호 ,126.6287001,경기 김포시 양촌읍 양곡2로60번길 26,4-Oct,,1,공휴일,10060,74637ce6e83449349bcc940a28ea95a6.jpeg,마음드린케이크,1,,55,생일케이크,37.65661017,Nan,아이 본인만,생일케이크
경기,1,1,홍익돈까스 김포점,126.6785133,경기 김포시 운양동 725-10,11시30분~9시30분,,99,15시~17시,10072,b026569a176349a19cfcad58c6c388d2.jpg,홍익돈까스 김포점,1,,937,,37.65885437,결식아동,아이 본인만,
경기,1,1,1층,126.6710434,경기 김포시 장기동 1394,11시30분 ~ 23시 50분,,1,없음,10079,33a528c2cf9443d381f07fe2102350ad.jpeg,족발야시장 김포장기점,2,,427,,37.64444568,결식아동,동반 1인,
경기,1,"01,02",1층 나란나란,126.6707712,경기 김포시 장기동 1419,10시~22시,,1,월요일 휴무,10079,276025afdb8a4bea960eb93447b3bc45.jpg,나란나란,3,,294,,37.64383126,"결식아동,독거노인",동반 2인,
경기,1,1,1층 이촌옥2nd,126.6737582,경기 김포시 장기동 2054-2,11시30분~21시,,1,주중 오후3시~5시 (브레이크타임),10088,5f500b4085834363b65c6058b3d129f2.jpg,이촌옥 2nd,2,,148,,37.63953747,결식아동,동반 1인,
경기,2,1,김포풍무홈플2층,126.724122,경기 김포시 풍무로 167,오전10시~오후10 시,,99,2째4째수요일,10117,16a334a8471f448f8dc652ad7dcef7f3.jpg,인스타일,1,,943,,37.60996386,결식아동,아이 본인만,
경기,1,1,금강리체빌딩 122호,126.7244002,경기 김포시 풍무로146번길 18,10:30 ~  21:00,,1,,10113,NULL,미스터빠삭 김포풍무점,2,,208,,37.60748662,결식아동,동반 1인,
경기,,,나비야,126.6322509,경기 김포시 하성면 월하로705번길 35-33,,,1,,10011,NULL,주식회사 나비야,,,490,,37.71129252,Nan,Nan,
경기,1,1,1층,127.1660198,경기 남양주시 다산중앙로82번안길 131-70,10~19,,2,,12249,a080c800348f4f079ff12a28f5dcca2e.jpeg,아르떼칠드런 다산점,1,,876,,37.61297801,결식아동,아이 본인만,
경기,1,,동대문엽기떡볶이 별내갈매점,127.117335,경기 남양주시 별내3로 25,오전11시~ 오후10시45분,,1,연중무휴,12110,0f1b85d6912442c5afad29e4f9647b2c.jpg,동대문엽기떡볶이 별내갈매점,99,결식아동가족,517,,37.64450556,Nan,결식아동가족,
경기,1,1,1층 홍콩반점,127.122644,경기 남양주시 별내동 1024-3,11시~9시,,1,없음,12112,cdc6c85186ef4b0997a1ed61702f1a21.jpg,홍콩반점남양주별내점,2,,233,,37.64674901,결식아동,동반 1인,
경기,99,1,4층 403호,127.1191835,경기 남양주시 별내면 청학로68번길 3,21-Dec,,1,월요일,12084,44b452f9a2df431a9ad27ecda518b8b6.jpeg,키즈팡팡,1,,577,식사나 과자 음료 놀이시설,37.70767952,결식아동,아이 본인만,식사나 과자 음료 놀이시설
경기,99,"01,99",꼬꼬스토리,127.1174217,경기 남양주시 별내면 청학로92번길 29,오전11시~오후10시,군인,1,매주 수요일,12080,29196cd0b5eb46bb91c77934240b087e.jpg,꼬꼬스토리,1,,422,컵강정,37.7108146,"결식아동,군인",아이 본인만,컵강정
경기,1,1,로뎀타워 109호,127.1253859,경기 남양주시 별내중앙로 34,오전 11시 ~ 오후 8시,,1,브레이크타임 3시~5시 / 휴무일 (일요일),12113,f2f8b853b42942058b33a7d490f8fc86.jpg,소름돈냉,2,,286,,37.64617112,결식아동,동반 1인,
경기,2,1,로뎀타워 115 송쿡,127.1253859,경기 남양주시 별내중앙로 34,오전11-오후8시50분,,1,"매주 화, 평일 오후 2시30분-5시",12113,301d415db4604f89b63e8d485e411e42.jpg,송쿡,2,,276,,37.64617112,결식아동,동반 1인,
경기,99,"01,99",가온PC,127.2109393,경기 남양주시 와부읍 석실로 471-4,10:00~18:00,기초수급자,99,국가공휴일,12201,NULL,가온정보통신,1,,375,컴퓨터수리,37.60990472,"결식아동,기초수급자",아이 본인만,컴퓨터수리
경기,99,1,다산종합물류,127.1846392,경기 남양주시 진건읍 사릉로 335-16,오전 9시~오후6시(점심시간12시~1시),,3,"주말 및 공휴일, 점심시간",12140,cce5333f2f534403b55ed0005e73fedc.jpg,주식회사 다산글로벌,2,,585,"핫팩, 손소독제",37.652386,결식아동,동반 1인,"핫팩, 손소독제"
경기,,"01,02",303동201호,127.2021781,경기 남양주시 진접읍 부평로48번길 13,3시-10시,,2,,12022,9306cb9a0cab435187987d4959b1b555.jpg,정은희 개인과외,1,,799,,37.7399527,"결식아동,독거노인",아이 본인만,
경기,99,1,장현프라자 220호,127.1808911,경기 남양주시 진접읍 장현로 77,"오전9시-오후6시, 주말 오전9시-오후1시",,3,"공휴일, 토요일 오후",12014,e35102a52e4a4ec49d6c75d0bc1fc899.jpg,한빛안경원,1,,689,기본 안경테와 기본 안경렌즈,37.71761594,결식아동,아이 본인만,기본 안경테와 기본 안경렌즈
경기,99,1,108호 호치킨 진접역점(삼성프라자),127.202318,경기 남양주시 진접읍 해밀예당1로 219,14:00~23:30,,1,,12054,a256304ddf754c829750eabb3a25eb2e.jpg,호치킨 진접역점,1,,112,치킨 단품메뉴,37.72057198,결식아동,아이 본인만,치킨 단품메뉴
경기,99,"01,02",보성빌딩 1층 짜글이 잘하는집 ,127.1457675,경기 남양주시 퇴계원읍 퇴계원리 44-28,"월,화,수,목,금,토,일 아침10시~밤12시",,1,없음,12115,cfd6c76c663d430e9794fa213054616f.jpeg,짜글이 잘하는집 ,2,,195,돼지짜글이 ,37.65945232,"결식아동,독거노인",동반 1인,돼지짜글이 
경기,99,1,1층 식빵의품격,127.2377788,경기 남양주시 평내동 604-5,10:00~8:30  당일빵소진시 조기마감,,1,일요일.국가공휴일,12226,f0f9962ac0d249f2b906771e6dc9f2d8.jpg,식빵의품격,1,,607,모든 식빵종류,37.64262774,결식아동,아이 본인만,모든 식빵종류
경기,,,1층 일파스토,127.248056,경기 남양주시 호평로68번길 5,,,1,,12151,NULL,일파스토,,,104,,37.65581082,Nan,Nan,
경기,1,"01,99",1층 석관동떡볶이,127.0546373,경기 동두천시 동두천로 115,11:00~23:00,g-dream 카드 소지자,1,14:30~15:30,11350,f7b801c1b86a4feba8e0fa4456837417.jpg,석관동떡볶이동두천점,2,,663,,37.8917055,"결식아동,g-dream 카드 소지자",동반 1인,
경기,1,1,1층 정씨함박,127.0525458,경기 동두천시 중앙로33번길 99,11시~9시,,1,매주월요일,11354,43f04ba68e974e56a24e637e697ae3a2.jpg,정씨함박 동두천점,2,,647,,37.88183739,결식아동,동반 1인,
경기,99,1,청년다방,127.0558847,경기 동두천시 지행동 738-9,AM11:00~PM9:20,,1,연중무휴,11356,NULL,청년다방 동두천지행점,1,,395,주류제외 1만원미만,37.88943615,결식아동,아이 본인만,주류제외 1만원미만
경기,1,1,1층 거기,126.7698822,경기 부천시 경인로134번길 52,낮12시~밤12시,,1,없음,14726,2ab654c673ba4a24bee166b2661423e1.jpg,거기,2,,608,,37.481776,결식아동,동반 1인,
경기,99,"01,02",우성테크노파크1 323호,126.8252463,경기 부천시 부광로 220,09:00-18:00,,99,11:30-13:30,14786,NULL,썸듀,2,,302,"생필품, 생활용품, 밀키트(계획중)",37.46762546,"결식아동,독거노인",동반 1인,"생필품, 생활용품, 밀키트(계획중)"
경기,2,,1층,126.8121987,경기 부천시 부일로 743,,,1,,14670,NULL,모두밀 부천직영점,99,,326,,37.48626839,Nan,,
경기,,,2층,126.7999147,경기 부천시 삼작로346번길 4,,,2,,14462,NULL,아이탑컴퓨터학원,,,39,,37.5197126,Nan,Nan,
경기,99,1,103호 다비치안경원 부천상동역점 ,126.7531635,경기 부천시 상동로 78,10:00~21:00,,3,"설,추석 당일 휴무",14545,4cee5ee2cda94f489608c0fe294e6033.jpg,다비치안경 부천상동역점,99,"어려운가정,가족모두혜택을드리고싶습니다",858,안경 10만원지원금액,37.50404618,결식아동,"어려운가정,가족모두혜택을드리고싶습니다",안경 10만원지원금액
경기,99,,1층  치킨선생/을찌로국물떡볶이  ,126.8023294,경기 부천시 소안로 34,12시~02시,,1,연중무휴,14699,0f15af08a7114a2e99e16966e08b6728.jpg,치킨선생/을찌로국물떡볶이 부천소사점,1,,465,크리스피 1마리  또는 을찌로떡볶이 ,37.47767127,Nan,아이 본인만,크리스피 1마리  또는 을찌로떡볶이 
경기,1,"01,02",1층 소율미용실,126.7698613,경기 부천시 송내동 588-3,오전10시반~오후8시,,3,일요일,14726,87668ac9322849b48ecbb168ce1a3393.jpg,소율,99,미리예약하시면 동반2인까지가능해요,980,,37.48177587,"결식아동,독거노인",미리예약하시면 동반2인까지가능해요,
경기,1,1,1층 떡순튀,126.7743878,경기 부천시 심곡동 344-7,11시~23시,,1,수요일(월4회),14617,745054b7fa454d2b82767a5d3bb5fa32.jpg,떡순튀,1,,456,,37.48880101,결식아동,아이 본인만,
경기,99,1,후문상가 2층 카페지향,126.766821,경기 부천시 약대로 20,평일 11:00-18:00,,1,"일,월,화 휴무 ",14514,4a84324b7a8e48aba8ce259fea74307b.jpeg,카페지향,1,,111,"음료1잔,케이크 제외한 디저트 1개",37.51233,결식아동,아이 본인만,"음료1잔,케이크 제외한 디저트 1개"
경기,1,1,상가 202호 국수나무,126.798787,경기 부천시 은성로67번길 12,10:00-20:00,,1,매주 일요일,14700,27c61361b33f45a280855e100115c427.jpeg,국수나무 부천소사점,2,,526,,37.47545962,결식아동,동반 1인,
경기,99,1,2층 허지스헤어 미금점 ,127.1077502,경기 성남시 분당구 돌마로 52,10:00~20:00,,3,"공휴일,주말제외.카카오톡플러스친구or네이버 예약문의",13630,d3512e8722044679b3be76f513454671.jpg,아트테라피 허지스헤어 ,1,,583,아동 및 학생커트,37.34968098,결식아동,아이 본인만,아동 및 학생커트
경기,1,1,1층 처갓집양념치킨동판교점,127.114874,경기 성남시 분당구 동판교로52번길 9-3,오후1시?새벽1시,,1,"첫째,셋째 월요일",13535,NULL,처갓집양념치킨동판교점,99,치킨한마리 무료 증정,1066,,37.38731535,결식아동,치킨한마리 무료 증정,
경기,1,1,"서현동, 1층 중화",127.1416054,경기 성남시 분당구 불정로420번길 17-1,11:30 ~ 21:00,,99,"15:00 ~ 17:00 , 매주 화요일",13578,3e7ebd76b8e0410fad5768ee7ca9a97d.jpg,중화,2,,438,,37.37554404,결식아동,동반 1인,
경기,99,1,1층 105호 팔팔뼈찜,127.1094002,경기 성남시 분당구 성남대로 52,오전11시~오후10시,,1,"매주일요일휴무, 평일 2시~4시45분까지 브레이크타임",13637,2e855f2076a943b4a59033c1d6a538f9.jpg,팔팔뼈찜,1,,640,뼈해장국,37.34045482,결식아동,아이 본인만,뼈해장국
경기,99,1,현대아리온1층,127.1104674,경기 성남시 분당구 성남대로172번길 12,오후3시30분~저녁6시,,1,일요일,13618,NULL,제일치킨,1,,206,치킨.음료수,37.35098019,결식아동,아이 본인만,치킨.음료수
경기,99,1,"1층 111호(정자동, 백궁프라자)",127.1063078,경기 성남시 분당구 성남대로331번길 13,오후13시부터 21시까지,,1,오후15시~16시30분,13558,aa83f2533058459cacc2d648162ba2a6.jpg,비스트로 분당김치찜 본점,2,,144,1인 식사류 전품목,37.36528619,결식아동,동반 1인,1인 식사류 전품목
경기,1,1,1층 ,127.1070938,경기 성남시 분당구 성남대로331번길 9-13,11:30~24:00,,99,매주 일요일,13558,025551e3de414f32ba03a16f2459df4d.jpg,미담,99,,830,,37.36450664,결식아동,,
경기,1,1,601동 청구상가 1층 104호,127.1167026,경기 성남시 분당구 수내동 32,16시 ~ 23시,,1,"설날, 추석 휴무",13597,c9cb4f872c364b2ab65f6e64799f9341.jpg,수내통닭,2,,1040,,37.37632404,결식아동,동반 1인,
경기,99,1,1층 피자나라치킨공주,127.135192,경기 성남시 분당구 야탑동 286-6,11시30분~23시 30분,,1,매주 화요일,13504,792ad8c800354cdcb7bbeb81a90e36cf.jpg,피자나라치킨공주,1,,1035,피자,37.4124947,결식아동,아이 본인만,피자
경기,1,1,H스퀘어 S동  1층 116호,127.1086985,경기 성남시 분당구 판교역로 231,,,1,,13494,NULL,이디야커피판교테크노밸리점,2,,809,,37.40133487,결식아동,동반 1인,
경기,2,"01,99",1층,127.1275539,경기 성남시 수정구 복정로 32,오전11~오후8시,미혼모 ,99,매주화요일,13119,df87220ab0ea41a49724dbf48189a0de.jpg,헤어잇다 ,1,,791,,37.4557595,"결식아동,미혼모 ",아이 본인만,
경기,99,,푸르지오4B-110호 ,127.1415002,경기 성남시 수정구 위례광장로 36,오전 4시 오전 11시까지,,99,없음,13646,cba1c616eb774d93a787bb22b05e4c58.png,맘마찬송파위례점,1,,207,생후6갤~15갤까지 먹는 수제이유식입,37.46843059,Nan,아이 본인만,생후6갤~15갤까지 먹는 수제이유식입
경기,2,1,1층 피자나라 치킨공주 태평점,127.1395281,경기 성남시 수정구 태평동 2454,낮12시~밤11시30분까지,,1,매장으로전화,13277,23d26a0442c94e1984abbb2f07e27e01.jpg,피자나라치킨공주 태평점,1,,637,,37.44901045,결식아동,아이 본인만,
경기,99,1,102호 더맛구이구이쪽갈비일월본점,126.9742155,경기 수원시 권선구 구운동 911-1,16시 ~ 24시,,1,없음,16413,bd2ff638796942f5bb32acd9f72a1c66.png,더맛구이구이쪽갈비일월본점,2,,540,쪽갈비 1kg,37.28334878,결식아동,동반 1인,쪽갈비 1kg
경기,1,1,"건우프라자 201,202호",126.9422178,경기 수원시 권선구 금곡동 1089,16시 ~ 24시,,1,없음,16388,a2b4958015b6495ea113eae7316dc980.jpg,숯닭무,1,,538,,37.27279424,결식아동,아이 본인만,
경기,99,"01,02",세종타운201호 보그헤어호매실점,126.9533424,경기 수원시 권선구 금곡로 204,오전10시30분~오후8시,,99,1시~2시,16397,c76743776940494ab0a69a4c7cdbd0c0.png,보그헤어서수원호매실점,1,,293,미용서비스,37.27370622,"결식아동,독거노인",아이 본인만,미용서비스
경기,1,1,애비뉴8번가 105호,126.9529839,경기 수원시 권선구 금곡로197번길 18-24,오전 11시 ~ 오후 11시,,1,없음,16391,108676c6d98a4d7382e3d0dd7883d942.png,돌배기집 수원호매실점,1,,73,,37.27467515,결식아동,아이 본인만,
경기,1,1,엘지종합상가1층127호 현이네 ,126.9366918,경기 수원시 권선구 금곡로73번길 33,11시30분~8시,,1,"토요일,일요일.공유일",16383,310de657643b43e68aa56192eea3b939.jpg,현이네,1,,605,,37.27429218,결식아동,아이 본인만,
경기,1,1,2층 갤러리베이커리,127.034691,경기 수원시 권선구 동수원로 232,10시 ~ 17시,,1,주말 휴무,16553,7613f3ce97c540a0b0343fc645801f74.jpg,갤러리베이커리,1,,688,,37.25025953,결식아동,아이 본인만,
경기,2,1,1층 코히고항,127.0211117,경기 수원시 권선구 세류동 1077-4,11:00~9:00 (포장 밤12시까지),,1,"정기휴무일 없음 (설날2일,추석2일,신정 휴무) ",16580,ea1e253d87cc4198b776de8090e59bfb.jpg,코히고항,1,,22,,37.25608555,결식아동,아이 본인만,
경기,99,1,2층 스트릿츄러스 롯데몰수원점,126.9972938,경기 수원시 권선구 세화로 134,10:30~22:00,,1,없음,16621,NULL,스트릿츄러스 롯데몰수원점,2,,94,츄러스1+음료 또는 아이스크림,37.26417795,결식아동,동반 1인,츄러스1+음료 또는 아이스크림
경기,2,1,1층,126.9780421,경기 수원시 권선구 오목천동 775,오전 11시-오후6시,,1,"일요일, 공휴일 휴무",16640,ad54b7ed7d6f4dc9b9b667318b1b136a.jpeg,카페플러스셀,1,,784,,37.23250928,결식아동,아이 본인만,
경기,1,1,메밀정원,126.9433824,경기 수원시 권선구 호매실동 840-3,11시부터21시까지,,1,"구정,추석당일만",16386,a3892e1df7af4410a9f9c5d49851908e.jpeg,메밀정원,2,,361,,37.26380862,결식아동,동반 1인,
경기,1,1,103호 프랑킨숯불양념구이치킨,127.053212,경기 수원시 영통구 망포동 11-12,11시~2시,,1,x,16681,010892741b8b4cdeb2c5ede8b71ffa35.jpg,프랑킨숯불양념구이치킨,1,,697,,37.24752709,결식아동,아이 본인만,
경기,1,1,104호 리틀꼬마김밥 원천점,127.0585064,경기 수원시 영통구 매영로 143,07:00-22:00,,1,연중무휴,16519,NULL,리틀꼬마김밥 원천점,2,,1014,,37.26662274,결식아동,동반 1인,
경기,99,1,상가동 1층 117호(파파후라이돈),127.0500435,경기 수원시 영통구 매영로 84,오후1시~밤11시,,1,매월 넷째주 월요일,16542,b712dd0fa6f04c51ae2ddd65288aa290.jpg,파파후라이돈,1,,852,오리지널후라이돈 1박스,37.26819975,결식아동,아이 본인만,오리지널후라이돈 1박스
경기,1,"01,02",뉴욕야시장,127.0452854,경기 수원시 영통구 매탄로108번길 52,16:00-02:00,,1,일요일,16545,dd6eca14863f41909a974db6bffb3b30.jpg,뉴욕야시장영통구청점,3,,798,,37.259432,"결식아동,독거노인",동반 2인,
경기,99,"01,02","1층, 보배반점 수원영통점",127.0773438,경기 수원시 영통구 반달로 104,11:00~22:00,,1,,16705,88861252795e49179130ce72be6a2f58.jpeg,보배반점 수원영통점,2,,586,식사류,37.25279129,"결식아동,독거노인",동반 1인,식사류
경기,1,1,SK뷰레이크타워 B120호,127.0601784,경기 수원시 영통구 법조로 25,오전 9시-오후 9시,,1,,16514,5395ac5286f94316a62e1b2eb17a5f8e.jpg,19T광교SK레이크점,3,,560,,37.28748089,결식아동,동반 2인,
경기,2,1,117호 츄카롱,127.074491,경기 수원시 영통구 봉영로 1606,오전11시 ~ 오후 10시,,1,매주 월요일,16704,NULL,츄카롱 수원점,1,,292,,37.25386861,결식아동,아이 본인만,
경기,99,"01,02",1층 102호,127.0602253,경기 수원시 영통구 신원로 257,평일 10시-19시 토요일 10시-17시,,1,"일요일 ,공휴일",16676,73aadb73ec934b69ac3492a8286fb9fa.png,가나쿠키,1,,963,음료+쿠키,37.25854205,"결식아동,독거노인",아이 본인만,음료+쿠키
경기,1,1,108호,127.0760225,경기 수원시 영통구 영통동 1023-1,11:00-21:00,,1,명절당일.다음날,16702,13eefa405ef1424c8385fc67004751b0.jpeg,키와마루아지 경희대점,2,,248,,37.24846623,결식아동,동반 1인,
경기,2,1,2층 부함식당,127.0585859,경기 수원시 영통구 영통로214번길 25,오전11:00 - 오전 01시,,1,없음,16698,NULL,부함식당 수원망포역점,2,,291,,37.24659873,결식아동,동반 1인,
경기,99,1,1층 꿀가네 낙곱새,126.997841,경기 수원시 장안구 파장동 595,오전11:30 새벽2시까지,,1,1~5시,16351,b782d631e57a4ede8df4e6bdae44e3ce.jpg,꿀가네낙곱새북수원점,1,,1083,참치마요 주먹밥 계란찜,37.30750315,결식아동,아이 본인만,참치마요 주먹밥 계란찜
경기,1,1,1층 도새기막창,126.9988015,경기 수원시 팔달구 동말로 43,17-24,,1,일요일,16443,NULL,도새기막창,2,,661,,37.27876268,결식아동,동반 1인,
경기,99,1,대학빌딩 다비치안경 아주대삼거리점,127.043825,경기 수원시 팔달구 아주로 3,오전 10시 ~ 밤 9시까지,,99,명절 당일만 휴무,16498,64791668c4b040b19afd7c0c058e0302.png,다비치안경 아주대삼거리점,1,,758,"안경테,안경렌즈,10만원이내 제공",37.27512023,결식아동,아이 본인만,"안경테,안경렌즈,10만원이내 제공"
경기,99,"01,02",1층 상가,127.0283637,경기 수원시 팔달구 인계동 1024-3,9:30-21:30,,1,매주 월요일 브레이크타임 15:00-16:00,16489,702db00b6557409f86df2efd4b74997b.jpeg,인생감자탕 수원인계점,2,,752,묵은지. 우거지. 해장국,37.26596207,"결식아동,독거노인",동반 1인,묵은지. 우거지. 해장국
경기,99,1,1층,127.034352,경기 수원시 팔달구 인계동 1119-8,오전11시부터새벽3시,,1,없음,16488,faf1c7277b5342ff9fce983f590890e8.jpg,김천재의육회반한연어,2,,1019,육회비빔밥.연어회덥밥.연어장덮밥.참치,37.26420715,결식아동,동반 1인,육회비빔밥.연어회덥밥.연어장덮밥.참치
경기,1,1,1층 ,127.0276343,경기 수원시 팔달구 인계동 211-6,오전11시~새벽4시,,1,연중무휴,16471,55f53d5fac3747e3ba81a866fb9350df.jpg,프랑킨숯불양념구이치킨 본점,2,,678,,37.27615266,결식아동,동반 1인,
경기,1,1,1층 지코바치킨 (대로변),127.0247911,경기 수원시 팔달구 인계동 982-11,09:00-(익일)04:00,,1,,16476,NULL,지코바치킨 인계1호점,1,,685,,37.26750357,결식아동,아이 본인만,
경기,1,99,달보드레유기농제빵소 ,127.0146931,경기 수원시 팔달구 행궁로 24,10:00-20:00,"소방관,경찰관.군인 전품목  10% ",1,매주월요일(공휴일이면 정상근무후 변경될수 있음),16260,3148533fdcc245399f5242f90e4a8397.jpg,달보드레유기농제빵소,99,결식아동 무료,1051,,37.28048411,"소방관,경찰관.군인 전품목  10% ",결식아동 무료,
경기,1,1,1층 102호 그렇게 함박이 된다,127.0150521,경기 수원시 팔달구 향교로 138,11:00~21:00(주문마감 20:00),,1,15:00~16:30 (주문마감 14:00),16463,8db9a5c15e7f4d1c9c8075374e91fe6d.jpg,그렇게함박이된다,2,,46,,37.2730348,결식아동,동반 1인,
경기,1,"01,02",월드프라자1층 107.108호 핵밥,126.8107073,경기 시흥시 능곡동 744,11:00~21:00,,1,연중무휴,14995,0efca08580114dc29b38eb3ecccfe9fa.jpg,핵밥시흥능곡점,2,,1009,,37.36866135,"결식아동,독거노인",동반 1인,
경기,1,"01,02,99",바나나래빗,126.7931526,경기 시흥시 대은로 10,11시 - 24시 (거리두기 단계따라 다름),"경찰, 군인",1,월 1회,14919,a8beebd29e834469b5f5a2359caa66b0.jpg,바나나래빗,2,,97,,37.43981824,"결식아동,독거노인,경찰, 군인",동반 1인,
경기,99,99,202호 스페로수학학원,126.7345764,경기 시흥시 배곧4로 103,,한부모/기초생활수급/차상위계층 가정,2,,15010,4833e722b692462992ecec3dc59ea193.jpg,스페로수학학원,1,,863,"초,중등 수학교습비",37.37385952,한부모/기초생활수급/차상위계층 가정,아이 본인만,"초,중등 수학교습비"
경기,99,,1층 107호,126.7334014,경기 시흥시 배곧4로 87,09:00~20:30,,1,둘째 넷째 화요일,15010,045d68010b684af391ac4d95e07480ca.jpeg,테그42배곧신도시점,1,,121,"토스트1, 음료1 제공",37.3745977,Nan,아이 본인만,"토스트1, 음료1 제공"
경기,99,1,(정왕동주차빌딩) 1층 108호,126.7341428,경기 시흥시 서촌상가3길 7-13,09:00~22:00,,1,"설날, 추석연휴",15036,f548d6680c934a3784d33e767bc2857d.jpg,24시수육국밥시화점,1,,305,"수육국밥, 순대국밥",37.34633737,결식아동,아이 본인만,"수육국밥, 순대국밥"
경기,99,1,고구려짬뽕,126.7748038,경기 시흥시 수인로 3472-22,10:30-20:00,,1,매주월요일,14903,NULL,고구려짬뽕집,2,,345,식사류,37.44399577,결식아동,동반 1인,식사류
경기,1,1,세븐일레븐건물,126.7966576,경기 시흥시 장현서3길 12,24시간,,1,연중무휴,14996,999d5b1f152546a28933b65a524e9a8b.jpg,담꾹 시흥장현점,1,,621,,37.37312396,결식아동,아이 본인만,
경기,1,1,1층 프랑킨치킨집,126.7436279,경기 시흥시 정왕동 1809-1,12~01시,,1,월요일,15054,NULL,프랑킨숯불양념구이치킨,1,,682,,37.34985024,결식아동,아이 본인만,
경기,99,"01,02",3층 베스트탁구교실,126.722374,경기 시흥시 중심상가로 38,09~24,,99,없음,15040,NULL,베스트탁구교실,2,,825,단식/복식,37.35266699,"결식아동,독거노인",동반 1인,단식/복식
경기,2,,406호,126.7852685,경기 시흥시 진말로9번길 2,14시~22시,,2,토.일,15002,NULL,해법장곡이지학원,1,,231,,37.37846402,Nan,아이 본인만,
경기,1,1,육장갈비,126.8328825,경기 안산시 단원구 고잔2길 16,오전11시~오후11시,,1,없음,15359,c53ec319379c441da8b0e7ee7499e152.jpg,육장갈비,2,,471,,37.31763327,결식아동,동반 1인,
경기,1,1,1층프랑킨숯불양념구이치킨,126.8312054,경기 안산시 단원구 고잔동 724,11:00~03:00,,1,연중무휴,15462,64e49043cf904ec99a5d9f6208289a9d.jpg,프랑킨숯불양념구이치킨,1,,677,,37.31472001,결식아동,아이 본인만,
경기,1,1,1층 116호 국수타래,126.8247717,경기 안산시 단원구 광덕4로 112,월~금 10시~20시 토 일 공휴일 휴무,,1,휴무시간 없음 ,15458,2ef4dfd6873d4234b01778e512bea077.jpg,국수타래,2,,190,,37.31514676,결식아동,동반 1인,
경기,1,1,천혜중앙 126호 히또시,126.8398787,경기 안산시 단원구 광덕4로 246,평일 11시30부터 21시까지 토요일 12시부터 21시,,1,일요일  국가 공휴일,15464,a8dd33a30d0f4fedbfcf5d2657a76722.jpg,히또시,99,아이들과 부모까지,627,,37.31435372,결식아동,아이들과 부모까지,
경기,1,1,B동 112호 뱃살도둑 안산고잔점,126.8289513,경기 안산시 단원구 광덕대로 141,08:00 - 02:00,,1,연중무휴,15476,NULL,뱃살도둑 안산고잔점,99,가족,333,,37.30909459,결식아동,가족,
경기,1,1,1층 105호 프레드피자 ,126.8312128,경기 안산시 단원구 광덕대로 206,오전11시~새벽3시20분,,1,연중무휴,15462,49a4afd2d40a464b8d7d4d2d10a2c190.png,프레드피자 안산1호점 ,1,,572,,37.31470056,결식아동,아이 본인만,
경기,99,1,108호 시작이반찬,126.8276877,경기 안산시 단원구 광덕서로 100,11:00~20:00,,1,매주일요일,15461,2999fc93428f43348eee3a57190617b7.jpg,시작이반찬,1,,482,반찬류 중 4종 선택,37.3135472,결식아동,아이 본인만,반찬류 중 4종 선택
경기,99,"01,02",2층,126.8155217,경기 안산시 단원구 달미로 100,10:00 ~ 21:00,,1,,15216,8253ba3a622c404f85bce5b29a296790.jpg,(주)포만푸드,2,,410,스테이크도시락,37.34466678,"결식아동,독거노인",동반 1인,스테이크도시락
경기,99,1,,126.8059321,경기 안산시 단원구 석수로 117,11:00 ~ 24:00,,99,없음,15219,11d9afad74e54a849e80dc8d9cf76a18.jpg,BBQ안산선부스마트점,1,,1036,치킨 반마리,37.34687328,결식아동,아이 본인만,치킨 반마리
경기,1,1,102호 ,126.8079235,경기 안산시 단원구 석수로 42,12시30분 ~  00시,,1,없음,15232,0d61b60a403e4fee9f821f9c2573dbd5.jpg,현일병의피자&치킨군단,1,,493,,37.34024109,결식아동,아이 본인만,
경기,99,1,114호 피자와치킨 안산1호점,126.8125681,경기 안산시 단원구 선부광장1로 108,오전 11시~ 오후 10시,,1,,15368,21e27a2a4610481b9ef7fa92aaba9880.jpeg,피자와치킨 안산1호점,99,결식아동 및  결성가정구성원,281,더블치즈피자  및 원하는 품목,37.33324835,결식아동,결식아동 및  결성가정구성원,더블치즈피자  및 원하는 품목
경기,99,1,109호 신참떡볶이,126.8021566,경기 안산시 단원구 원초로 33,오전11시~오후22시,,1,없음,15383,NULL,신참떡볶이안산원곡점,1,,226,나홀로세트,37.32872318,결식아동,아이 본인만,나홀로세트
경기,99,1,다비치안경 안산중앙역사거리점,126.8363986,경기 안산시 단원구 중앙대로 899,10시 ~ 9시,,3,연중무휴 / 명절당일만 휴업,15360,4dbc6615faa5417d9585dc85ec60fd06.jpg,다비치안경 안산중앙역사거리점,1,,994,눈에 편안한 안경 맞춰줄게요 : ) ,37.31729273,결식아동,아이 본인만,눈에 편안한 안경 맞춰줄게요 : ) 
경기,99,"01,02",월드코아 2층 옥스포드 학생복,126.8382701,경기 안산시 단원구 중앙대로 915,오전 11시 - 오후 6시,,99,매주 일요일,15361,955bae19af2b47d99858901b59f93543.jpg,옥스포드 학생복,1,,1027,"교복 셔츠, 교복 바지",37.31718303,"결식아동,독거노인",아이 본인만,"교복 셔츠, 교복 바지"
경기,2,,301,126.8151138,경기 안산시 단원구 초지로 90,7-Feb,,2,,15448,NULL,맨투맨영수학원 ,1,,486,,37.30673794,Nan,아이 본인만,
경기,99,1,506호,126.8650907,경기 안산시 상록구 본삼로 45,11/13/15/17/19시 100% 예약제,,99,매주 일요일,15537,22958e6680b144e0bfccdade88db924d.png,홍차부부사진가게,1,,1078,새학기용 학생증사진(8매+보정본),37.30109669,결식아동,아이 본인만,새학기용 학생증사진(8매+보정본)
경기,99,1,101호,126.8662407,경기 안산시 상록구 본오로 89-1,오전11:00 ~ 익일 01:00,,1,매주 월요일 휴무,15551,c0441ed041844d65aebe8408bfba334c.jpg,동대문떡볶이 동떡&닭강정,2,,246,떡볶이+치킨세트 or 떡볶이+컵밥,37.29315031,결식아동,동반 1인,떡볶이+치킨세트 or 떡볶이+컵밥
경기,2,1,앤의식탁,126.8386024,경기 안산시 상록구 사동 1570,평일10~10   토 11~9 일 1~9,,1,평일 3~4  브레이크타임,15577,97bec1194c49492b8c0f3b43b73a7766.jpg,앤의식탁,2,,846,,37.3010729,결식아동,동반 1인,
경기,1,"01,02",국제프라자 101호 뚜레쥬르안상록수점,126.8635749,경기 안산시 상록구 샘골로 190,07:30 ~ 22:00,,1,,15538,753eb7020d074a27a257a148beebd190.png,뚜레쥬르안산상록수,2,,547,,37.30070678,"결식아동,독거노인",동반 1인,
경기,99,"01,02",지하 1층 청년몰 숩,126.8659882,경기 안산시 상록구 석호로 315,12:00~19:30,,1,"매월2,4째 일요일 ,매주월",15541,1996eb34a70c4a6a8676f53a2a9163ea.jpg,숩:,2,,887,여름방학 겨울방학동안 스테이크제공,37.29374921,"결식아동,독거노인",동반 1인,여름방학 겨울방학동안 스테이크제공
경기,1,1,다농마트 3층 톡톡청년몰 373호 ,126.8442393,경기 안산시 상록구 예술광장로 1,오전11시~오후8시,,1,"일,월 휴무",15288,0d0d165162e34983836353a1cc37c9aa.png,더둘베이크,2,,724,,37.32836149,결식아동,동반 1인,
경기,99,"01,99",롯데마트 3층 안산무지개연합의원 ,126.8466535,경기 안산시 상록구 항가울로 422,10시 -21시,,99,12시-12시30분 18시-18시30분,15299,729b4bef8f1e467bbd1e9accd448e93d.jpeg,안산무지개연합의원 ,2,,622,병원 방문시 병원옆 푸드코트식사제공,37.31809504,"결식아동,",동반 1인,병원 방문시 병원옆 푸드코트식사제공
경기,2,1,,127.2238827,경기 안성시 대덕면 내리 689-13,12:00~20:00,,99,매주일요일,17546,1aee9692f5b3454da9089e239b1d537c.jpg,오늘구움,1,,599,,37.00186562,결식아동,아이 본인만,
경기,99,99,2층,127.2443859,경기 안성시 미양면 협동단지길 3,오전10시 ~ 오후5시,지역사회 비영리 단체 등,1,오전11시:30분 ~ 13시30분,17604,9c7c41ec982d46acabde920a0ecc8992.jpg,같이행복공동체협동조합,99,"취약계층(어르신,결식아동,장애인 등)",484,"냉동도시락, 즉석도시락",36.9588537,지역사회 비영리 단체 등,"취약계층(어르신,결식아동,장애인 등)","냉동도시락, 즉석도시락"
경기,2,1,1층,127.2543539,경기 안성시 신건지동 2-9,11:00~23:00,,1,매주화요일,17573,6ff07739588e4f5882a2b9e447792052.jpg,푸드코트,1,,635,,37.01402142,결식아동,아이 본인만,
경기,1,1,폴리프라자1층 cafeOTDN,127.259358,경기 안성시 아양1로 61,11시~21시,,1,매주일요일/매달첫번째토요일,17577,cc6d69edd723456399eb63ca299e88dc.jpg,카페오티디엔(cafeOTDN),2,,105,,37.00762384,결식아동,동반 1인,
경기,99,"01,02",107호 올곧은소반,126.9625268,경기 안양시 동안구 경수대로 428,평일 Am10:30~Pm8:00/토요일 ~Pm4:00,,1,일요일 휴무,14126,0a1a138fc6f0479f8e643ba267d63ba3.jpg,올곧은소반,2,,593,컵소반도시락 or 밑반찬3종,37.36226346,"결식아동,독거노인",동반 1인,컵소반도시락 or 밑반찬3종
경기,1,"01,02",2층 레드브라운카페,126.9591057,경기 안양시 동안구 경수대로584번길 37,10시 부터 20시,,1,일요일,14109,df17e0686a3d41bbb978317f5a45d0cd.jpg,레드브라운호계점,1,,389,,37.37557264,"결식아동,독거노인",아이 본인만,
경기,2,"01,99",1층,126.9696049,경기 안양시 동안구 관악대로 419-1,14:00~23:00,안양시 소방관  포장주문시 40%할인,1,휴무일없음,13939,621e0d7fa8d54af193799199d89acd7f.jpg,비비큐인덕원사랑점,1,,1071,,37.40512025,"결식아동,안양시 소방관  포장주문시 40%할인",아이 본인만,
경기,99,1,카페마녀 ,126.9650507,경기 안양시 동안구 관평로138번길 53,오후4시~11시,,1,일요일,14068,NULL,카페마녀 ,1,,756,치킨,37.39063913,결식아동,아이 본인만,치킨
경기,1,1,1층 102호,126.9637456,경기 안양시 동안구 관평로69번길 29-7,오전11시 ~ 오전1시30분,,1,,14103,NULL,프랑킨숯불양념구이치킨 안양점,1,,679,,37.38292156,결식아동,아이 본인만,
경기,99,1,4층,126.975556,경기 안양시 동안구 시민대로 408,11:00 ~ 22:00,,1,15:00 ~ 17:00,14058,NULL,벨라로사,99,매주 월요일 아이 본인만,1004,파스타,37.39632424,결식아동,매주 월요일 아이 본인만,파스타
경기,99,1,흥일빌딩 6층 다수인학원,126.9604223,경기 안양시 동안구 평촌대로 107,12:00~23:00,,2,없음,14099,766a83fe75914537b29092412bfde9dd.png,한원석,99,수강을 할 학생,287,학원 수강료 일정금액 면제,37.38156589,결식아동,수강을 할 학생,학원 수강료 일정금액 면제
경기,99,1,백두프라자 101호 악마국수,126.9541335,경기 안양시 동안구 평촌대로217번길 27,11시~22시,,1,16시~17시,14072,e274dc2484ec42eeb2e8a6c7b3f2c762.jpeg,악마국수,1,,810,"Noodle, rice, side",37.39032941,결식아동,아이 본인만,"Noodle, rice, side"
경기,99,"01,02,99",1층 왼쪽,126.9178934,경기 안양시 만안구 삼덕로 78,오전11시 부터 오후 00시 까지,경찰관,1,없음,14002,NULL,힘찬뼈다귀,1,,625,1인분 감자탕,37.39540012,"결식아동,독거노인,경찰관",아이 본인만,1인분 감자탕
경기,1,"01,02",104동 127호,126.9291077,경기 안양시 만안구 안양로 180,오전 9시 ~ 오후 9시,,1,없음,14033,efb4708a8d7d44bcb7c27659e135fa88.jpg,로스터리카페 쉼,1,,609,,37.39018388,"결식아동,독거노인",아이 본인만,
경기,99,"01,02",1층 미용실,126.8835839,경기 안양시 만안구 오리로 58,11~6,,3,매주일요일,13976,849e475dd6fb435689a4f98c34443127.jpeg,모결헤어팀안양점 감쌀롱,1,,518,남자컷트 학생컷트 여학생컷트,37.40941373,"결식아동,독거노인",아이 본인만,남자컷트 학생컷트 여학생컷트
경기,,,105호 안심축산물판매점 (링크오상가,126.9311471,경기 안양시 만안구 태평로52번길 37,10:00~22:00,,99,연중무휴,14037,NULL,안심축산물판매점 메가트리아점,,,755,,37.39607597,Nan,Nan,
경기,99,"01,02,99",아이엠피자,126.9806808,경기 양주시 광적면 광적로 75,오전 11시 ~ 오후 11시,굶주린 누구나,1,매주 월요일,11420,fcb7494dbca7439ab4c35681af47c10e.jpg,아이엠피자,99,,110,피자,37.82531108,"결식아동,독거노인,굶주린 누구나",,피자
경기,99,1,스카이프라자104호 또띠아를 말아줘,127.077678,경기 양주시 부흥로 1932,11시~20시,,1,일요일휴무,11492,d55bae288b934af89cf0ddb5fb46b07b.jpg,또띠아를 말아줘,2,,214,브리또세트,37.79443941,결식아동,동반 1인,브리또세트
경기,1,"01,99",스카이타워 114호 부산어묵 ,127.0921413,경기 양주시 옥정동 963-4,9.09,지역에 어려운이웃,1,매주화요일,11473,d47539e7c56e4897970966142012340e.jpg,부산어묵 ,2,,447,,37.82140143,"결식아동,지역에 어려운이웃",동반 1인,
경기,99,"01,02",1층 더모아나,127.0971786,경기 양주시 옥정동로5길 32,10:00-17:00,,1,"매주 일, 월, 공휴일 휴무",11476,1f90f661d0fc4af691264a91f91b5f99.jpeg,더 모아나,1,,1029,샌드위치 증정 ,37.81644654,"결식아동,독거노인",아이 본인만,샌드위치 증정 
경기,99,"02,99",1층 멜로우프루타,127.0969575,경기 양주시 옥정동로7길 40,12:00 - 22:00,"공무원증 제시 시,  30% 할인",1,매주 월요일 정기 휴무,11473,NULL,멜로우프루타,99,아이 본인 샌드위치 + 음료  제공,503,샌드위치 + 음료  / 30% 할인,37.8212017,"독거노인,공무원증 제시 시,  30% 할인",아이 본인 샌드위치 + 음료  제공,샌드위치 + 음료  / 30% 할인
경기,99,,M타워 3층 305호 생고기제작소,127.0927954,경기 양주시 회천남로 88,오후4~새벽2시,,1,없음,11473,113d689235a440ad927b21f0ca15b6ba.jpg,생고기제작소 양주옥정점,99,18살미만 카드소지자본인외형제자매해당,87,소고기+삽겹살 한판+공기밥+음료,37.81854831,Nan,18살미만 카드소지자본인외형제자매해당,소고기+삽겹살 한판+공기밥+음료
경기,2,1,104호 티니샵미니,127.5061034,경기 양평군 양평읍 공흥리 293-1,19-Nov,,99,"일요일, 공휴일",12550,569e13035a67420aa01f51ab419dd93b.jpg,티니샵 ,1,,832,,37.49343831,결식아동,아이 본인만,
경기,1,1,담꾹,127.4920713,경기 양평군 양평읍 양평시장길 14-3,10시~6시,,1,,12556,NULL,담꾹 양평점,1,,1076,,37.49035806,결식아동,아이 본인만,
경기,1,1,1층 집어가 양평용문점,127.5920898,경기 양평군 용문면 다문북길 81,24시간 영업,,1,,12515,NULL,집어가 양평용문점,1,,781,,37.48692981,결식아동,아이 본인만,
경기,1,"01,02",단밤 1271 CAFE,127.444814,경기 여주시 산북면 광여로 1271,11시~ 20시,,1,매주 화요일 휴무,12600,f1d9b01badcb49288ec1bc1e266a8f04.jpg,단밤1271CAFE,1,,769,,37.40666802,"결식아동,독거노인",아이 본인만,
경기,1,1,1층 건짱,127.6359931,경기 여주시 세종로 254-20,오후1:00~오후11:00,,1,"금,토,일,월 휴무",12652,71c5b7996f744d3e992260393f96882d.png,건짱,2,,455,,37.27477948,결식아동,동반 1인,
경기,99,1,2층,127.6361674,경기 여주시 세종로79번길 7-1,낮3시~밤12시,,1,격주 월요일,12631,64d51abb521f4613bae0195b367bfa08.jpg,자담치킨,2,,394,치킨,37.29065189,결식아동,동반 1인,치킨
경기,1,1,달리는커피여주점,127.6405712,경기 여주시 청심로 185,오전9시~오후8시,,1,일요일정기휴무,12620,b6a8e6a762214a13bf5644d38c7d528d.jpg,달리는커피여주점,1,,811,,37.2967041,결식아동,아이 본인만,
경기,2,1,1층 114호,127.0738675,경기 오산시 경기대로 154,오후3시~12시,,1,매주월요일,18144,fb3df800af5647d5bb9fa32480b2dbbe.png,노랑통닭오산원동점,2,,948,,37.13849384,결식아동,동반 1인,
경기,,,115호 승도리네 곱도리탕 ,127.0652766,경기 오산시 내삼미로79번길 46,,,1,,18114,NULL,승도리네오산세교점 ,,,131,,37.1702358,Nan,Nan,
경기,99,1,1층 장수순대국,127.0753975,경기 오산시 밀머리로 46,10시-22시,,1,매주 토요일,18144,NULL,장수순대국,1,,641,"순대국밥,머리국밥",37.13765399,결식아동,아이 본인만,"순대국밥,머리국밥"
경기,1,1,세마엠시티 101호 포레스티,127.0413892,경기 오산시 수목원로 618,오전 7시 - 오후 7시,,1,,18106,bc85d8e36f694773b4ad64d2a1ab0202.jpg,포레스티,2,,1063,,37.18678046,결식아동,동반 1인,
경기,1,"01,02",1층,127.0691862,경기 오산시 시장길 8,11시~15시,,1,없음,18136,0be9ea6b56e1497bb743cb3ef8fd0ed6.jpg,가마솥시골전통보리밥,99,"등본상거주지동일인모두,소방관은동반2인",168,,37.14962729,"결식아동,독거노인","등본상거주지동일인모두,소방관은동반2인",
경기,99,1,103호,127.1124848,경기 용인시 기흥구 구갈로72번길 10,오전 11시반~오후9시반,,1,없음,16972,NULL,을찌로국물떡볶이 기흥구청점,1,,611,을찌로국물떡볶이. 김가루밥.어묵탕,37.28059881,결식아동,아이 본인만,을찌로국물떡볶이. 김가루밥.어묵탕
경기,,1,시그니처1,127.1530249,경기 용인시 기흥구 동백죽전대로 299,오잔10~오후10시,,1,없음,16995,088620c17ae74c1e82f6e87fdb9ae665.jpg,시그니처1,1,,488,,37.26762595,결식아동,아이 본인만,
경기,1,"01,02",1층다블,127.0771609,경기 용인시 기흥구 서그내로15번길 33-2,10:00~ 20:00,,1,빨간날,17104,6a10ffb64ee34f9faa466c2b86ff2630.jpg,다블,3,,508,,37.24670522,"결식아동,독거노인",동반 2인,
경기,1,"01,02,99","1층 오른쪽 맨 끝, 푸오코",127.0771635,경기 용인시 기흥구 서천동 7-2,오전10시-저녁7시,코로나 의료 종사자,1,"일요일,설,추석",17104,3beebc8a9b794c589228a6f18c7d20a1.jpg,푸오코 (FUOCO),1,,180,,37.24667377,"결식아동,독거노인,코로나 의료 종사자",아이 본인만,
경기,1,1,"102호, 타니예르",127.0736804,경기 용인시 기흥구 서천서로12번길 4-2,0800-2000,,1,,17105,NULL,타니예르,1,,40,,37.24060745,결식아동,아이 본인만,
경기,99,1,1층 르꼬끄스포르티브 ,127.1209127,경기 용인시 기흥구 신고매로 124,오전11시오후8시30분,,99,명절 당일,17087,70c68488a5674d5dbc6808983c33a449.jpg,르꼬끄스포르티브 ,99,지역 조손가정 아이 본인만,1007,신발,37.22537006,결식아동,지역 조손가정 아이 본인만,신발
경기,1,1,"208(일부),209,210호",127.0714667,경기 용인시 기흥구 영덕동 986-1,16시 ~ 24시,,1,없음,16954,b6ed583e1f894eb6a8d251fc91aa3be2.jpg,숯닭무흥덕점,1,,539,,37.27502693,결식아동,아이 본인만,
경기,99,,풍산프라자 8층 메디웰(주),127.1107849,경기 용인시 기흥구 죽전로 17,9A-6P,,99,"주 4 일(토,일, 공휴일 휴무)",16897,b771b0851c3542468a144713cc167fa4.gif,메디웰(주),3,,759,,37.32072436,Nan,동반 2인,
경기,99,1,이씨티 D동206호,127.0715895,경기 용인시 기흥구 흥덕2로87번길 18,오전10시부터 오후 8시까지,,99,매주 화요일,16954,963d606169624b9ebea24b641b47e399.jpg,N5헤어,1,,1038,학생커트,37.27591222,결식아동,아이 본인만,학생커트
경기,1,"01,02",골드프라자 B207호,127.0811963,경기 용인시 수지구 성복2로 17,20-Nov,,1,일요일 휴무,16860,af8f56e1581b42de823ea631e52e4d68.jpg,달콤트럭 수지센트럴점,2,,277,,37.31083465,"결식아동,독거노인",동반 1인,
경기,99,1,1층,127.0942394,경기 용인시 수지구 수지로296번길 56,11시30분-20시30분,,1,명절전날.당일,16841,4e54816b5e5347c6b5a68a233a292e95.jpg,홍콩반점0410수지구청점 ,2,,364,짜장+탕수육,37.32100703,결식아동,동반 1인,짜장+탕수육
경기,99,"01,02",1층,127.0954803,경기 용인시 수지구 풍덕천동 1082-7,09:00~22:00,,1,,16841,38be6ec9ddfe451fbc66b0235b87c667.png,순대보감,1,,275,"국밥류 4,000원",37.3217574,"결식아동,독거노인",아이 본인만,"국밥류 4,000원"
경기,2,"01,02",603호,127.126426,경기 용인시 수지구 현암로 153,"평일 13:00~22:00, 토10:00~ 18:00",,2,공휴일,16876,NULL,119수학학원,1,,164,,37.33195195,"결식아동,독거노인",아이 본인만,
경기,99,1,삼환나우빌아파트 상가 2층,127.1945264,경기 용인시 처인구 김량장동 516,오전11시~오전 1시,,1,,17061,11d4836dce3d498781b2925a17c9e994.jpg,빨간토마토피자 용인1호점,1,,255,일부 품목 제외,37.23366158,결식아동,아이 본인만,일부 품목 제외
경기,1,1,상가 돌빙커피,127.1852913,경기 용인시 처인구 명지로16번길 26,10:00-22:00,,1,"매월 첫째 월,화 휴무",17054,9a9b9f64ceaf4103965a59ed87fb43d6.jpeg,돌빙커피본사직영점,2,,817,,37.23560688,결식아동,동반 1인,
경기,2,99,상가동7호 과일숲,127.1822434,경기 용인시 처인구 명지로40번길 35-16,10:00~20:00,"소방관, 임산부고객님들께 1000원할",1,일요일,17056,0e506f04b6704e849686d71cc7a0d698.jpg,과일숲,99,부담없이 오셔서 말씀해주세요,576,,37.23068902,"소방관, 임산부고객님들께 1000원할",부담없이 오셔서 말씀해주세요,
경기,99,1,미니스톱용인외대점,127.2533935,경기 용인시 처인구 모현읍 외대로 36,07시~22시,,1,명절,17035,e39df9cc1b19490a90d7bb452b7d6aa7.jpg,미니스톱용인외대점,2,,838,"김밥,샌드위치,도시랑등",37.33580702,결식아동,동반 1인,"김밥,샌드위치,도시랑등"
경기,99,1,하나컴퓨터,127.2513459,경기 용인시 처인구 모현읍 초하로 78-54,10:00~17:00,,99,주말 및 공휴일 휴무,17037,NULL,하나컴퓨터,99,급식카드 소지한 학생의 가족 모두,1016,컴퓨터 프린터 무료수리,37.31075363,결식아동,급식카드 소지한 학생의 가족 모두,컴퓨터 프린터 무료수리
경기,1,1,소노펠리체 b동 101호,127.2860625,경기 용인시 처인구 양지면 교동로 10,8~18시,,99,연중무휴 예약제,17158,e93a4c8f6dd44532b914f014940fe069.jpeg,케미 케이크,1,,835,,37.23569684,결식아동,아이 본인만,
경기,2,1,150-1 1층 치킨플러스,127.2198433,경기 용인시 처인구 포곡읍 전대로49번길 1,12:00-24:00,,1,매월 둘째주 넷째주 일요일,17023,4de37ddb60d94cb1bf8d074bd0a93b02.jpg,치킨플러스에버랜드점,2,,771,,37.28309131,결식아동,동반 1인,
경기,1,1,104호 션하게마시자,127.2270572,경기 용인시 처인구 한터로152번길 2,15:00~23:00,,1,매주 일요일,17149,d048dd3abe474b3aa8b7c66750d0368e.jpeg,션하게마시자,1,,306,,37.2484846,결식아동,아이 본인만,
경기,1,1,102호(대로변 하얀가게),126.9949637,경기 의왕시 안양판교로 213,11:00~21:00,,1,15:00~17:00,16009,f28169ec337d40c78d13965d9106b6ea.jpg,엄마의두번째부엌,1,,1081,,37.38975505,결식아동,아이 본인만,
경기,1,1,A동 105호,126.963144,경기 의왕시 어내들로 5,09:00~19:00,,1,,16046,71e0ad31a2af49bb9a2d12fdcf4c4a08.jpg,정다방,1,,894,,37.36159365,결식아동,아이 본인만,
경기,1,1,1층 매일찬방,126.9674522,경기 의왕시 원골로 8,10시까지,,1,주말.공휴일,16053,NULL,매일찬방,1,,317,,37.35827679,결식아동,아이 본인만,
경기,99,1,1층 아이엔맘 ,127.0349263,경기 의정부시 가능동 671-19,10시~5시,,1,주말.공휴일,11681,d45cd32e89b141d18548f8c7084ce834.jpg,아이엔맘,2,,68,마카롱10구1팩,37.74924547,결식아동,동반 1인,마카롱10구1팩
경기,99,,원광빌딩 메가커피,127.0475466,경기 의정부시 경의로 107,09:00~21:00,,1,,11696,NULL,메가커피 의정부경의교차로점,99,첫방문시 맴버쉽쿠폰발급(아이 본인만),662,모든 음료,37.73339139,Nan,첫방문시 맴버쉽쿠폰발급(아이 본인만),모든 음료
경기,99,1,1층 꿈꾸는아뜰리에미술교습소,127.0569956,경기 의정부시 경의로193번길 12,1시30분~7시,,2,"주말, 공휴일",11728,761dbec5fbc54482a01e59e495d7e979.jpg,꿈꾸는아뜰리에미술교습소,1,,41,아동미술 주1회 90분,37.73388409,결식아동,아이 본인만,아동미술 주1회 90분
경기,99,"01,02",1층 스시화,127.0928393,경기 의정부시 오목로 111,10시30분~22시,,1,없음,11808,3a693598c5654111b1c172fa56c1fcfa.jpg,스시화,1,,1075,초밥,37.73801171,"결식아동,독거노인",아이 본인만,초밥
경기,1,"01,02",삶천식당 1층,127.0838434,경기 의정부시 용민로26번길 40,11:30-8:30(브레이크 3-5시),,1,"일요일, 월요일, 모든 공휴일",11785,37a6f9cc49174c99a2343e8a33c17ab8.jpeg,삶천식당,2,,727,,37.73566233,"결식아동,독거노인",동반 1인,
경기,2,1,한끼한죽,127.0929875,경기 의정부시 용현로160번길 14-7,오전10시~오후10시,,1,2시30분~4시30분,11808,be6ed607c80e414e920a6549766de7c5.jpg,한끼한죽,1,,951,,37.73990264,결식아동,아이 본인만,
경기,1,1,1층,127.0512158,경기 의정부시 의정부동 147-18,12:00~24:00,,1,,11695,5f60b4f7094246ddbc7f9823f75e85ab.jpg,Mr.푸룻,1,,436,,37.7384288,결식아동,아이 본인만,
경기,,,원이쌀밥,127.4954544,경기 이천시 대월면 사동로 76-19,,,1,,17342,NULL,원이쌀밥,,,497,,37.23644182,Nan,Nan,
경기,99,1,103호,127.47201,경기 이천시 부발읍 대산로 379,오전11시~오후21시30분,,99,15시~16:30분,17329,26b4bdb062d544e0a75757a5ec974a88.jpg,닭사부일체 이천본점 ,3,,339,묵은지닭볶음탕+치즈폭탄계란찜 ,37.2533485,결식아동,동반 2인,묵은지닭볶음탕+치즈폭탄계란찜 
경기,2,"01,02",1층 그린마트,127.4916201,경기 이천시 부발읍 아미리 666,오전8:30~오후23:00,,3,없음,17332,520453ea9ff94ab19ef0a908cccd9d59.jpeg,그린마트,1,,744,,37.25291342,"결식아동,독거노인",아이 본인만,
경기,1,1,쎄미치킨,127.4428704,경기 이천시 서희로 52,오후2시 - 오후 11시30분,,1,매주일요일,17374,NULL,쎄미치킨1989,3,,33,,37.28010476,결식아동,동반 2인,
경기,99,"01,02",첼바,127.4394822,경기 이천시 설봉로30번길 32,10:00~21:00,,1,,17375,8f7d87f666ff4bd492b3809becf1adbd.jpeg,이천첼바,1,,241,"음료,샌드위치",37.27866501,"결식아동,독거노인",아이 본인만,"음료,샌드위치"
경기,1,1,고피자,127.4436811,경기 이천시 창전동 158-11,10:30-23:00,,1,연중무휴,17369,5a23052714d74ac7a06b0a70640a61ab.jpeg,고피자 이천중앙로점,2,,581,,37.28082155,결식아동,동반 1인,
경기,2,1,1층상가,126.7467414,경기 파주시 가재울로 89,11~2,,1,없음,10871,108c628a97b643c88f35c23e003da09c.jpeg,피자스토어,3,,587,,37.73099661,결식아동,동반 2인,
경기,1,"01,02",1층 129호,126.7188982,경기 파주시 동패동 1701,,,1,,10874,61197e8cc5a74a6aab184e9c1c4b3300.jpg,60계치킨 파주교하점 ,3,,114,,37.72490413,"결식아동,독거노인",동반 2인,
경기,99,"01,99",1층 미소가와,126.7822296,경기 파주시 문산읍 당동리 134-3,오전9시~오후9시,,1,매주화 휴무,10821,654584e9c9f742dc9bc4cf495f6e4362.jpg,미소가와,99,,289,최대한 원하는 품목 ,37.86203236,"결식아동,",,최대한 원하는 품목 
경기,99,1,1층 야당핫헤어,126.7644338,경기 파주시 송학1길 152,10시~7시,,3,예약필수^^카드필수^^,10909,3a677733c1bd4afcb0a54db7ed927e84.jpg,야당핫헤어,1,,524,커트,37.71507053,결식아동,아이 본인만,커트
경기,99,1,1층,126.7798174,경기 파주시 쇠재개울길 62-13,12:00~24:00,,1,명절 당일,10934,NULL,주가리곱창,1,,702,국밥,37.75153039,결식아동,아이 본인만,국밥
경기,2,1,110호,126.7614753,경기 파주시 심학산로 628,오전 11시30분 ~ 밤 12시,,1,오후3시~오후5시,10908,b2e083ac2b8c44949f277eec21136f0b.jpg,생선구이와꼬치닭,1,,976,,37.71650073,결식아동,아이 본인만,
경기,99,1,광성빌딩1층,126.7372549,경기 파주시 심학산로423번길 7-21,"평일 ,일요일 9시~ 8시30분, 토요일 9시~6시",,1,,10900,0e18ea796d074d00930df28f2ffc1bec.jpg,에그박스파주운정점 ,1,,1062,"오리지널에그,햄치즈에그,베이컨치즈에그",37.71880807,결식아동,아이 본인만,"오리지널에그,햄치즈에그,베이컨치즈에그"
경기,1,1,우동아저씨,126.7566065,경기 파주시 와동동 1576,12~21,,1,4-Mar,10870,NULL,우동아저씨,1,,957,,37.73616985,결식아동,아이 본인만,
경기,1,1,상가104호 파더스김밥앤카페,126.7580017,경기 파주시 와석순환로 16,am10:00~pm8:00,,1,없음,10908,aed85a673e044c3f9cbdd2cbfc3c50f5.jpg,파더스김밥앤카페,1,,834,,37.71091051,결식아동,아이 본인만,
경기,1,1,1층,126.8087803,경기 파주시 조리읍 내산길 71,11시~9시,,1,매주화요일,10938,NULL,명수네국물떡볶이,1,,705,,37.74661301,결식아동,아이 본인만,
경기,1,1,1층,126.8091748,경기 파주시 조리읍 봉천로 21,오전11시10분~오후11시30분,,1,연중무휴,10937,934f058248e743988882c6835364d9fc.jpg,피자1989봉일천점,99,"꿈나무,컬러풀드림카드.소지자 및",377,,37.7429932,결식아동,"꿈나무,컬러풀드림카드.소지자 및",
경기,1,1,거묵프라자 303호,126.7182868,경기 파주시 청석로 264,12:00-23:00,,1,매주 월요일,10874,5b998ad889244574af4062f698272075.jpeg,백년손님서서갈비무한리필,2,,821,,37.72558371,결식아동,동반 1인,
경기,99,"01,02,99",상가동101호 ,126.7741591,경기 파주시 후곡로 77,오전11시30분 -오후9시,국가유공자 본인,1,매주 월요일,10918,45c5496910c74a3e9c64793a1f973251.jpg,더착한한우갈비탕,1,,103,갈비탕 6천원,37.74957342,"결식아동,독거노인,국가유공자 본인",아이 본인만,갈비탕 6천원
경기,99,1,1층 처갓집양념치킨 고덕국제점 ,127.0487596,경기 평택시 고덕국제4길 54,오후 2시 - 오후 11시 50분,,1,상황에 따라 달라요.,18008,a96127f8e2d64a23b659c0fdc18937b4.png,처갓집양념치킨 고덕국제점 ,1,,698,후라이드 ,37.05327403,결식아동,아이 본인만,후라이드 
경기,1,1,106호,127.1052999,경기 평택시 비전3로 26,오전9시~오후10,,1,매주월요일 휴무,17852,8f083f3f45874adea7b60c7438f46fdd.jpg,웰돈카츠&떡볶이 비전점,2,,589,,37.0023066,결식아동,동반 1인,
경기,2,1,파리바게트 소사벌상업지구,127.1136644,경기 평택시 비전5로 20-10,23-Jul,,1,,17854,NULL,파리바게트 소사벌 상업지구,2,,1012,,36.99975459,결식아동,동반 1인,
경기,1,1,스마일빌딩 109호 고기고기,127.1147164,경기 평택시 비전5로 37,17:00~24:00,,1,둘째 넷째 월요일,17854,bd46c1fe7a1048459a0523e2a52161a9.jpeg,고기고기,2,,767,,37.00158782,결식아동,동반 1인,
경기,99,"01,02",아주1차아파트 상가동2층  그림네일,127.0655951,경기 평택시 송탄공원로 146,10:00~19,,99,"일요일, 법정공휴일",17729,680742324ca0423383218d3205ae7c4e.jpg,그림네일,1,,201,"기본젤네일, 케어(패디큐어포함)",37.07729481,"결식아동,독거노인",아이 본인만,"기본젤네일, 케어(패디큐어포함)"
경기,99,"01,02,99",참다한홍삼 평택안중점 ,126.9313442,경기 평택시 안중읍 안중로 133,09:30~20:00,"전 제품 2만원 할인(홍삼,비타민)",99,,17933,155b5966fad1484183818e6b50a449ff.jpg,참다한홍삼 평택안중점 ,2,,1017,"어린이홍삼,비타민 1회2만원할인",36.98899616,"결식아동,독거노인,전 제품 2만원 할인(홍삼,비타민)",동반 1인,"어린이홍삼,비타민 1회2만원할인"
경기,99,1,1층,126.9251771,경기 평택시 안중읍 안중로 8,09시30분~19시,,3,매주 수요일,17940,5495813256fd42709c15e08a58c35398.jpg,미스터케이헤어살롱,1,,384,커트 무료시술,36.98237262,결식아동,아이 본인만,커트 무료시술
경기,1,1,2층 요나요나,126.9230136,경기 평택시 안중읍 안현로서8길 21,17~22,,1,없음,17943,NULL,요나요나,2,,561,,36.97896081,결식아동,동반 1인,
경기,1,1,149호,126.9190898,경기 평택시 안중읍 현화리 831,11시~15시 17시~21시,,1,매주 일요일 15:00~17:00,17944,NULL,리얼파스타,1,,335,,36.97895946,결식아동,아이 본인만,
경기,1,"01,02",1층 달토끼짬뽕,127.1333115,경기 평택시 용이동 598-1,11시~20시30분,,1,매주 월요일,17869,ac9ee3eddf5146009b669e69879c3fb7.jpg,달토끼짬뽕용이점,99,모두가능,613,,36.99801696,"결식아동,독거노인",모두가능,
경기,99,"01,02",1층 무모한초밥,127.1255183,경기 평택시 용이동 687-4,11:00 ~ 21:00,,1,없음,17870,cfb9343e0bfa42af854a34019b850dbe.jpg,무모한초밥(용죽점),1,,1030,"초밥,우동,돈가스",36.99244262,"결식아동,독거노인",아이 본인만,"초밥,우동,돈가스"
경기,1,1,1층.해두리치킨,126.9182332,경기 평택시 청북읍 안청로2길 14-21,오후4시~11시까지,,1,매월 첫째주 화요일,17808,9120bceb4e2041949b77bfd5a816301c.jpg,해두리치킨,1,,952,,37.01707673,결식아동,아이 본인만,
경기,2,1,104호 위더스컴퓨터 청북점,126.9120105,경기 평택시 청북읍 안청로3길 14,10시~19시,,3,토요일 격주휴무 일요일 및 공휴일 휴무,17801,NULL,위더스컴퓨터 청북점,1,,1072,,37.02301427,결식아동,아이 본인만,
경기,99,1,1층 갓츠킹,126.9162245,경기 평택시 청북읍 청북남로 253,오전11시~오후9시,,1,연중무휴,17808,286c16d1baaf43909272ad1d5bf1da93.jpg,갓츠킹평택청북점 ,1,,866,도시락,37.01889542,결식아동,아이 본인만,도시락
경기,99,1,1층 옹쓰온,127.0848931,경기 평택시 통복시장로13번길 5,12:00~20:00,,99,월요일 휴무,17893,NULL,옹쓰온,1,,102,캔들 원데이 클래스,36.99663649,결식아동,아이 본인만,캔들 원데이 클래스
경기,1,1,1층 옛날돼지고기,127.0610016,경기 평택시 특구로23번길 39,오후4시부터자정까지,,1,없음,17774,NULL,옛날돼지고기,3,,133,,37.06768003,결식아동,동반 2인,
경기,2,1,1층 코브라독스 평택세교점,127.0804429,경기 평택시 평택로 146,오전11시~오후9시,,1,없음,17839,e4c351cb9c0e4690ae15867f869c4a74.jpg,코브라독스 평택세교점,2,,687,,36.99867297,결식아동,동반 1인,
경기,2,1,리시오빌딩 1층 코브라독스 평택용이점,127.1358121,경기 평택시 현신3길 8,오전11시~오후9시,,1,없음,17868,742686a7712c4f6e8962401d4a6d5b11.jpg,코브라독스 평택용이점,2,,686,,36.9958035,결식아동,동반 1인,
경기,1,"01,02",1층102호,127.1330293,경기 평택시 현촌3길 22-13,오전10시,,3,무,17869,c27f2ea130a2405cbee0c7606c79b1fd.jpeg,사진공간 #3,99,가족,77,,37.00146184,"결식아동,독거노인",가족,
경기,1,1,점심,127.1657746,경기 포천시 건너말길 7,11:30~21:00,,1,14:30~17:00/재료소진시 휴무,11161,090b0a467e2943d881cef03e1c4a9799.jpg,점심,2,,1047,,37.85417688,결식아동,동반 1인,
경기,99,1,106동1206호,127.1458367,경기 포천시 소흘읍 송선로 60,오전6시~ 오후7시,,99,연중무휴,11170,5d2f052ffb2746d1aa36da706024e83b.jpg,짱포천사다리차,99,미혼모/결식아동/홀로된노인,939,사다리차 지원 및 후원,37.83776295,결식아동,미혼모/결식아동/홀로된노인,사다리차 지원 및 후원
경기,99,1,2층 배양리두루치기,127.3177766,경기 포천시 일동면 화동로1050번길 3,12시~22시,,1,무,11117,3b774e4ff8f64fe18b72ede1bbec3c1a.jpg,배양리두루치기일동점,2,,388,김치찌개.왕계란말이.삼겹살.된장찌개,37.95710537,결식아동,동반 1인,김치찌개.왕계란말이.삼겹살.된장찌개
경기,99,1,4층,127.2038989,경기 포천시 중앙로 132,10:00~19:00,,99,,11145,f9d683b5df03457e81e938d9ecae9708.jpg,필름1982,1,,261,증명사진,37.89777189,결식아동,아이 본인만,증명사진
경기,1,"01,02",1층,127.1742935,경기 포천시 호국로 1149,07:00-21:00,,1,일요일후무,11158,6f6d9361de15407aa976d52445424fe9.png,올레찹쌀꽈배기 ,99,상황에따라,861,,37.86573917,"결식아동,독거노인",상황에따라,
경기,2,1,1-193호 정성쿡,127.1961786,경기 하남시 망월동 1127,9시~10시,,99,일요일 휴무,12912,c640a7bb14074d138e704e785c5a17f5.jpeg,정성쿡,1,,542,,37.56490665,결식아동,아이 본인만,
경기,99,"01,02",1층,127.2000402,경기 하남시 망월동 1184-3,오전 10시 ~ 오후 9시,,1,매주 화요일,12923,9f44fd16457d4a7dbf79816f0e7c427c.jpg,애플앤베리,2,,700,"컵과일, 과일도시락, 과일샐러드도시락",37.56087822,"결식아동,독거노인",동반 1인,"컵과일, 과일도시락, 과일샐러드도시락"
경기,2,"01,02",1층 105호,127.1884631,경기 하남시 미사강변대로54번길 125,오전 10시~오후 9시,,1,매주 일요일,12919,5be1fed600654b3c8fe823cd59e04e75.png,미사상회,1,,829,,37.55791488,"결식아동,독거노인",아이 본인만,
경기,99,99,그랑파사쥬2층2043호12BL미사역,127.1917417,경기 하남시 미사강변동로 95,10시~22시,선한영향력관련자모두,99,일요일휴무,12913,63ba0f710d80487a9d894ef96d67a4f4.jpg,알리앙스,3,,489,은귀걸이+귀뚫어줘요,37.5637312,선한영향력관련자모두,동반 2인,은귀걸이+귀뚫어줘요
경기,2,1,205호 장미맨숀,127.1901696,경기 하남시 미사강변중앙로204번길 11,17:00~01:00,,99,매주월요일,12913,NULL,장미맨숀하남미사점,2,,397,,37.56523516,결식아동,동반 1인,
경기,1,1,1층,127.1995649,경기 하남시 미사강변한강로334번길 43-1,오전 10:00~오후9:00,,1,매주 일요일,12923,5649790e10c346c1a8d04e1df7b3b62b.jpeg,샐리앤린(맥시칸라이브그릴),99,,225,,37.56002722,결식아동,,
경기,1,"01,02",A9-046 ,127.2064677,경기 하남시 미사대로 550,09:00~23:00,,2,,12925,NULL,라바유아체육 ,2,,903,,37.55676934,"결식아동,독거노인",동반 1인,
경기,1,"01,02,99",101동 2215호,127.190411,경기 하남시 아리수로 570,오전 9시 ~ 오후 11시 50분,그외의 어려운 모든 이웃,2,"명절, 방학 중 특정 2 ~ 3일",12913,NULL,박샘의 수학교실,2,,91,,37.56681503,"결식아동,독거노인,그외의 어려운 모든 이웃",동반 1인,
경기,99,"01,02",503,127.207591,경기 하남시 하남대로 809,10~21,,99,빨간날은 쉽니다.,12957,79fc5cc3709b4a579599fb64c8f56f7f.png,아라뷰티케어 ,1,,826,기본케어 & 여드름케어,37.54105884,"결식아동,독거노인",아이 본인만,기본케어 & 여드름케어
경기,99,1,1층,127.2119119,경기 하남시 하남대로802번길 68,11:00~20:30,,1,매주 일요일 고정휴무,12950,e5f0c7bb19c64a669ae98a6572f1b6e7.jpg,용갈집,2,,98,일반 갈비탕,37.54216498,결식아동,동반 1인,일반 갈비탕
경기,2,1,교동짬뽕,127.0351161,경기 화성시 경기대로 1027,오전 11시 ~ 오후 9시,,1,없음,18412,NULL,교동짬뽕,2,,34,,37.20748912,결식아동,동반 1인,
경기,1,1,101호,127.0522798,경기 화성시 능동 1162-1,12시-12시,,1,격주일요일휴무 미리전화확인유,18428,4fcca732efeb4e29b913533b7450a713.jpg,인생역전족발,3,,789,,37.19778657,결식아동,동반 2인,
경기,99,1,지하1 144호,127.0901841,경기 화성시 동탄기흥로 393-20,11:00-20:00,,99,연중무휴,18479,e4045f16e2584fb59632496d2ec22d78.jpg,리틀아이보리 동탄역파라곤점,2,,534,어린이2시간이용권,37.19638256,결식아동,동반 1인,어린이2시간이용권
경기,1,1,"푸르지오시티 A동 208,209호 ",127.0968913,경기 화성시 동탄대로 551-16,09:00~19:00,,1,매주 일요일,18478,4a8258f1e9ab4fd398ec3eb2c9cf5c0a.jpg,오히려 김밥,3,,1056,,37.20316786,결식아동,동반 2인,
경기,99,"01,02,99",동탄아이티밸리2차 317호,127.1034866,경기 화성시 동탄대로 706,가게는 아니고 사무실입니다,,3,,18463,f986fa5d6b2c4cfca5e8ca156b586ea6.jpg,엘리사,99,기관이나 가정,836,방향제,37.21472131,"결식아동,독거노인,",기관이나 가정,방향제
경기,99,"01,02","109호(산척동,파케이드 스텔라)",127.1096351,경기 화성시 동탄대로6길 27,24시간 무인,,1,연중무휴,18501,b3464ca8dca7445693b23b86b91077a1.jpg,홈즈앤쿡 동탄호수공원점,1,,205,밀키트 1팩(2~3인분),37.16873263,"결식아동,독거노인",아이 본인만,밀키트 1팩(2~3인분)
경기,1,"01,99",파케이드스텔라 지하201호 ,127.1096351,경기 화성시 동탄대로6길 27,16시~24시,,99,0,18501,a422771c6e52480691f54560c9a8b391.jpg,경성주막1929 동탄호수공원점,99,가족모두,464,,37.16873263,"결식아동,",가족모두,
경기,1,"01,02",판매시설동 1113호,127.1131615,경기 화성시 동탄대로시범길 134,09:00~21:00,,1,없음,18476,acd9e78154c746728d4b8763fac37b59.jpg,도담도담식빵동탄점,2,,127,,37.19902851,"결식아동,독거노인",동반 1인,
경기,99,"01,99",연세프라자 203호 한우궁 동탄남광장,127.0727379,경기 화성시 동탄문화센터로 71-17,1030~2000,소방복착용 소방관본인 특정품목 무료 ,1,매주 일요일,18455,e0ce1584dcd24a8f9bec113b52bb1cd1.jpg,한우궁 동탄남광장점,1,,203,육개장/육칼국수 떡갈비 곰탕 만두국,37.20025655,"결식아동,소방복착용 소방관본인 특정품목 무료 ",아이 본인만,육개장/육칼국수 떡갈비 곰탕 만두국
경기,99,"01,02",108호,127.0730029,경기 화성시 동탄솔빛로 44,16시~22시,,1,아직은없음,18442,NULL,꼬꼬불장작 동탄나루점,2,,1028,"꼬꼬한방통닭,꼬꼬누룽지통닭",37.19288839,"결식아동,독거노인",동반 1인,"꼬꼬한방통닭,꼬꼬누룽지통닭"
경기,99,"01,02",114호 크라상점 동탄호수공원점,127.107263,경기 화성시 동탄순환대로 127-23,11시 부터 21시 까지,,1,,18505,a4da7c9da6174dff924d55377f19a9c2.jpeg,크라상점 동탄호수공원점,1,,120,12개 랜덤박스 1개,37.16776499,"결식아동,독거노인",아이 본인만,12개 랜덤박스 1개
경기,99,,LH35단지 상가 1층 선한커피,127.1217503,경기 화성시 동탄순환대로10길 42,"평일 7시~20시, 주말 10시~19시",,1,매주 수요일,18504,7dead449f0ab47f9b82eb880ecfe9594.jpg,선한커피,1,,213,카페인이 들어가지 않는 모든 음료,37.16652186,Nan,아이 본인만,카페인이 들어가지 않는 모든 음료
경기,1,1,이지더원아파트 상가,127.1102808,경기 화성시 동탄순환대로28길 17,11:00~18:00,,1,"일,월,화,수,목 (금,토만 매장 운영)",18466,2125d932ec1841ad891d6e0870814f4a.jpg,샹떼콩콩,1,,466,,37.20854939,결식아동,아이 본인만,
경기,2,1,골든프라자106호 로켇트분식,127.1093034,경기 화성시 동탄순환대로29길 64,오전 11시 ~ 오후 9시,,1,매주 월요일,18472,928b5dd1f3bc4ec39b2efb48d6140562.jpg,로켇트분식 화성1호점,1,,977,,37.20446097,결식아동,아이 본인만,
경기,1,1,로얄클래스 1층 104호,127.0971077,경기 화성시 동탄오산로 86-8,10:00~09:00,,1,,18478,3f9b27efac084e489f18d37cefd2a429.jpg,정직한김밥,99,무관,96,,37.19786905,결식아동,무관,
경기,2,"01,02",이타운107호 ,127.0431534,경기 화성시 병점동 844-3,09~01.30,,1,매주월요인ㆍ,18405,NULL,더맛있는과일 1리터커피 ,2,,989,,37.21435508,"결식아동,독거노인",동반 1인,
경기,,,곳간스토리,126.9808978,경기 화성시 봉담읍 고시길 28,,,1,,18327,NULL,곳간스토리,,,1054,,37.20574961,Nan,Nan,
경기,1,"01,02",상가 105호,126.9740618,경기 화성시 봉담읍 참샘길 33,평일  11:00~20:00,,1,일요일,18321,5635f3d894174895b5eae52ff3d0d4e2.jpg,트위스트꽈배기,2,,74,,37.21461293,"결식아동,독거노인",동반 1인,
경기,1,1,코스코상가 105호,126.7241883,경기 화성시 송산면 백곡로 128,오후 3시부터  10시 30분까지,,1,연중무휴,18552,6a504d916a8f455babb48d541692331b.jpg,피자와치킨의러브레터,3,,284,,37.19766843,결식아동,동반 2인,
경기,1,1,신세계프라자b1층 다올,127.1077815,경기 화성시 영천동 675-1,19-Nov,,99,월요일 또는 유동적,18472,fa41c65ed5be4bc0b2fa92bb830cdbfb.jpeg,다올,1,,975,,37.20470709,결식아동,아이 본인만,
경기,2,"01,02",102호,127.1257588,경기 화성시 왕배산2길 3-3,,,1,,18490,NULL,탐나는식탁,1,,694,,37.18078399,"결식아동,독거노인",아이 본인만,
경기,99,1,제주커피,126.8161049,경기 화성시 우정읍 3.1만세로 16,am 8:30 ~ pm 9:00,,1,없어요.,18567,647d08df96264cd3abe15bf6cb5aa6ad.png,제주커피 화성조암점,99,가족,865,음료 메뉴 전체에서 선택,37.08130125,결식아동,가족,음료 메뉴 전체에서 선택
경기,2,"01,02",102호,126.8228971,경기 화성시 우정읍 조암동로36번길 1,월-금 10시30부터 8시까지,,1,토.일,18565,011a0c05eddb46ab8f61acc3f6cf99c1.jpg,씬즈,99,가족,604,,37.08792128,"결식아동,독거노인",가족,
경기,2,"01,02",압구정 베이커리 카페,126.82821,경기 화성시 장안면 사랑길 170-4,매일 오전 9시 ~ 오후 9시,,1,연중무휴,18584,c5565268fb7c49bd907c254a1bb47d51.png,압구정 베이커리 카페,3,,416,,37.08478491,"결식아동,독거노인",동반 2인,
경기,1,,판매시설 1143호 하삼동 커피,127.1142782,경기 화성시 청계동 536,08:30~21:30,,1,없음,18476,a2abb53c07814d98af540fd1f231ccc9.jpg,하삼동 커피,1,,972,,37.19917431,Nan,아이 본인만,
경기,1,"01,02",(행정리)103호,126.9148777,경기 화성시 향남읍 행정서로1길 52,오전10시-오후7시,,1,연중무휴,18598,c0203ae49f304738bfae7e7bb73ed121.jpg,곡간 수제도시락 ,2,,878,,37.12918797,"결식아동,독거노인",동반 1인,
경기,1,1,1층 108호 ,126.9225642,경기 화성시 향남읍 행정중앙2로 63-34,오전11시~오후16시,,1,없음,18600,c4d04f444bd24b9e9f0e5ab6ff827c62.jpg,농부항아리수제비,1,,571,,37.13057727,결식아동,아이 본인만,
경기,99,"01,02",메인프라자 610호,127.0419733,경기 화성시 효행로 1051,9:00~22:00,,3,"토,일",18398,3c1acb0e1a84482198e31e973add6c6c.png,LINEUP Dance&Fitness,1,,202,"키즈댄스반, 청소년 댄스반",37.21462897,"결식아동,독거노인",아이 본인만,"키즈댄스반, 청소년 댄스반"
강원,99,"01,99",상가동 103호,128.938467,강원 강릉시 경강로2539번길 22,10시~20시,"독거노인, ",1,"없음, 매주호ㆍ요일",25560,30b610d50a584b0d9f29362b452c0588.jpg,카페 빅 트리,2,,931,샌드위치와 음료,37.77563379,"결식아동,독거노인, ",동반 1인,샌드위치와 음료
강원,2,1,아빠곰,128.9002628,강원 강릉시 동부시장3길 5,10:00~06:00,,99,"매주 일요일,월요일",25552,7d30df0885eb4c29a111656170946c21.jpg,아빠곰,2,,652,,37.75842327,결식아동,동반 1인,
강원,99,"02,99",센트로빌딩4층.차일드유,128.870051,강원 강릉시 선수촌로 67,월~금 1:30-7:30,기초생활자 원비 50% 감면,2,"토요일, 일요일 휴무",25522,1b6c8fb12c0b49fdaff9220272ea4142.jpg,차일드유 유천캠퍼스,1,,851,원비 50% 할인,37.75684619,"독거노인,기초생활자 원비 50% 감면",아이 본인만,원비 50% 할인
강원,1,1,1층 혜자식당 (포남동),128.9105845,강원 강릉시 성덕포남로153번길 7,11:00-21:00,,1,월요일 정기휴무,25547,7bded06bc4b44ce2a20e03226835d98c.jpg,포남혜자국밥(혜자식당),2,,690,,37.76549944,결식아동,동반 1인,
강원,99,1,유로코피자,128.8810505,강원 강릉시 원대로17번길 5,12:00~23:30,,1,15:00~17:00,25518,NULL,유로코피자 강릉점,3,,653,전 메뉴 L까지,37.75629949,결식아동,동반 2인,전 메뉴 L까지
강원,2,"01,02",실비생선구이,128.8282113,강원 강릉시 주문진읍 해안로 1721,08:00~21:00,,1,연중무휴,25418,5f87acc4ecdd45548e7127b5221210b3.jpg,실비생선구이,3,,107,,37.88866265,"결식아동,독거노인",동반 2인,
강원,99,"01,99",강릉유환식당,128.9202448,강원 강릉시 초당동 70,11시~21시 (브레이크타임15시~17시),불우이웃증명만된다면 다됨,1,설당일휴무,25468,6fad934d5fea4d4983775a0014ac8709.jpg,강릉유환식당,1,,273,대게장을 제외한 모든품목,37.78435552,"결식아동,불우이웃증명만된다면 다됨",아이 본인만,대게장을 제외한 모든품목
강원,99,"01,99",위니아딤채 교동점,128.8803993,강원 강릉시 하슬라로 14,10~19시,독거노인,99,매주일요일,25518,a04369a8b08f450b8c7fadbf1359395b.jpg,위니아딤채(교동점),99,밥굶는 아이라면 누구나,398,"에어컨,음식등 지원",37.75536228,"결식아동,독거노인",밥굶는 아이라면 누구나,"에어컨,음식등 지원"
강원,2,1,1층,128.8777212,강원 강릉시 하슬라로232번길 17-7,12:00~19:00 소진시 마감,,1,"일,월,화,수,목",25508,38c1ed9af5db4683b02b3dccb7f20e72.jpg,설레이나봄,2,,472,,37.77107671,결식아동,동반 1인,
강원,2,"01,99",6층 리스펙스포츠클럽,128.9116089,강원 강릉시 하평1길 14,13:00~21:00,"한부모가정, 차상위계층, 기초생활수급",2,매주 일요일 휴무,25566,4fe7e87c786a44ae895d78c408477709.png,리스펙스포츠클럽,1,,901,,37.77124333,"결식아동,한부모가정, 차상위계층, 기초생활수급",아이 본인만,
강원,2,1,아파트상가 105호,128.9125968,강원 강릉시 하평2길 6,14시~23시,,1,매주 일요일,25567,4f137bb5cc654a1093507ad96bd273db.jpg,인생닭강정 강릉포남점,2,,130,,37.77077696,결식아동,동반 1인,
강원,1,1,1층,128.5529995,강원 고성군 토성면 아야진해변길 145,09:00~17:00,,1,"매주 수요일휴무 , 라스트오더  16:30",24756,06651e3de4224745a2af0179fbc33f1f.jpg,해녀의집바이아야진,2,,421,,38.27534065,결식아동,동반 1인,
강원,99,1,스테이지풀빌라카페,128.5607389,강원 고성군 토성면 토성로 124-1,09:00~19:00,,1,연중무휴,24764,NULL,스테이지풀빌라카페,3,,814,카페음료,38.25651478,결식아동,동반 2인,카페음료
강원,1,1,또봉이통닭 ,129.3355065,강원 삼척시 원덕읍 호산중앙로 13,2~~12시,,1,없음,25961,NULL,또봉이통닭 ,1,,36,,37.1745725,결식아동,아이 본인만,
강원,1,1,아빠의부엌,128.5786818,강원 속초시 교동로 33,,,1,,24846,NULL,아빠의부엌,2,,554,,38.20199423,결식아동,동반 1인,
강원,99,"01,02",가동 105호,128.581391,강원 속초시 번영로43번길 22,오후5시 새벽12시30분,,1,매주 월요일 휴무,24842,19629fe04d4a454190bd05d54a42cecd.jpg,해풍,3,,137,3만5천원 음식제공,38.20558309,"결식아동,독거노인",동반 2인,3만5천원 음식제공
강원,1,1,2층 일미리금계찜닭속초점 ,128.5827975,강원 속초시 중앙로 61,11:00~24:00,,1,,24835,NULL,일미리금계찜닭속초점,2,,742,,38.2011468,결식아동,동반 1인,
강원,1,1,상가동 110호,128.578013,강원 속초시 중앙로17번길 11,오전10시~오후9시,,1,휴무시간 휴무일없음,24853,e696635f9dbb47398aa49032109c6818.jpg,김수미의엄마손맛 속초교동점,1,,1018,,38.19887432,결식아동,아이 본인만,
강원,99,1,1층,128.6016818,강원 속초시 해오름로188번길 12,9:00~19:30,,1,,24886,af24bdfb2ed34b95b81195f884c7c845.jpg,탑골막국수,1,,224,"막국수,만두,전병",38.19170655,결식아동,아이 본인만,"막국수,만두,전병"
강원,99,,1층(유)늘푸른환경,128.4657275,강원 영월군 영월읍 은행나무6길 13-18,08:30~18:00,,99,,26237,ff09d0b7d7d545968e1138e5b4e3a1e8.png,(유)늘푸른환경,99,환경개선(청소)부족 아이거주 세대,860,거주지대청소및 소독,37.17882178,Nan,환경개선(청소)부족 아이거주 세대,거주지대청소및 소독
강원,2,,안경나라,128.4690817,강원 영월군 영월읍 중앙로 47,09:00~20:00,,99,매월넷째주일요일휴무,26232,6aa7b90d054545c9b3a4f3fb6fee2ece.jpeg,영월안경나라,1,,187,,37.18369433,Nan,아이 본인만,
강원,1,1,110호(단계동),127.9322179,강원 원주시 북원로 2235-4,24시간,,1,매주 화요일,26436,5cbd79ad58d945fd9e5aced3af26bbff.jpg,미아리우동집,3,,949,,37.3456913,결식아동,동반 2인,
강원,99,"01,99",1층 으뜸플러스안경 원주점,127.9483879,강원 원주시 원일로 122-1,09:30 - 20:00,추천,99,매주 일요일,26428,NULL,으뜸플러스안경 원주점,1,,909,안경,37.35046544,"결식아동,추천",아이 본인만,안경
강원,99,99,스타에듀빌딩 4층 405호,127.8714197,강원 원주시 지정면 도원로 20,14:00~22:00,결식아동. 한부모가정. 기초생활수급,2,토.일,26354,NULL,우리학원,2,,906,초.중등 종합,37.37312839,결식아동. 한부모가정. 기초생활수급,동반 1인,초.중등 종합
강원,99,1,1,127.7625505,강원 춘천시 동내면 거두길 30,11시부터8시,,1,,24400,6abf99696e204b2c8ea1c6b4144e2146.jpg,면사무소,1,,643,짜장 짬뽕 볶음밥 미니탕수육,37.861035,결식아동,아이 본인만,짜장 짬뽕 볶음밥 미니탕수육
강원,,,2층 채선당행복가마솥밥롯데마트춘천점,127.7180801,강원 춘천시 방송길 84,,,1,,24364,NULL,채선당 행복가마솥밥 롯데마트춘천점,,,1073,,37.86857865,Nan,Nan,
강원,1,1,실비막국수,127.7258622,강원 춘천시 소양고개길 25,11:30 ~ 19:00,,1,"둘째 넷째주 월요일, 설/추석 당일만 휴무",24271,f25a2cc4d4a64b50bdee7fa7b3f6fa42.jpg,실비막국수,3,,450,,37.88368567,결식아동,동반 2인,
강원,,,1층 로우라이트,127.7286482,강원 춘천시 중앙로77번길 33,19-Dec,,99,매수 수요일 휴무,24354,NULL,로우라이트,,,877,,37.87753384,Nan,Nan,
강원,1,"01,02",상가102호 하나병원 건너 큰사거리,127.748032,강원 춘천시 춘천로 316,08:00~20:00,,1,연중무휴,24278,fe77f30bfa784db1a8741ebd73c98fa5.jpg,크라상점 춘천후평점,1,,1026,,37.88184295,"결식아동,독거노인",아이 본인만,
강원,1,"01,02",종로타워1층,127.7443321,강원 춘천시 퇴계농공로 20,08:00~20:00,,1,연중무휴,24414,037364743d3c4723a0e335876e05569c.jpg,크라상점 춘천점,1,,597,,37.85159206,"결식아동,독거노인",아이 본인만,
강원,99,1,,127.7254934,강원 춘천시 행촌로 48,17:00~03:00,,1,없음,24442,NULL,이모네고깃집,1,,356,1인 돼지갈비,37.86058987,결식아동,아이 본인만,1인 돼지갈비
강원,1,1,봉부대,128.3784898,강원 평창군 봉평면 기풍로 140,08~17,,1,정해지지않았음,25303,269297a5e61f403eb8c906dc99389dc2.jpg,봉부대,2,,916,,37.61502656,결식아동,동반 1인,
강원,99,"01,02",거진코다리 ,127.9066245,강원 홍천군 홍천읍 공작산로 137-10,11~9시30분,,1,매주 월요일,25150,4ea6420d09244c009e966514019de45b.jpg,거진코다리 ,99,아이의 가족분들,986,코다리조림 ,37.69383706,"결식아동,독거노인",아이의 가족분들,코다리조림 
경남,99,"01,02",.,127.904617,경남 거창군 거창읍 개화1길 111-27,08:00~17:00,,1,공휴일 휴무,50124,NULL,사과한모금,1,,828,사과즙(거창한사과 그 두번째 이야기),35.70197968,"결식아동,독거노인",아이 본인만,사과즙(거창한사과 그 두번째 이야기)
경남,99,1,1층,128.8132818,경남 김해시 관동로71번길 24,평일오전10시~오후4시,,3,주말 공휴일,51005,NULL,수아헤어,1,,477,헤어커트(예약필수),35.17740292,결식아동,아이 본인만,헤어커트(예약필수)
경남,2,"01,02",1층 호록,128.8525564,경남 김해시 금관대로1180번길 3,11:00~21:00,,1,15:00~17:00,50956,111c507cb2b54e18a8e435ac577dc574.jpg,호록,2,,442,,35.23250155,"결식아동,독거노인",동반 1인,
경남,99,1,1층 OJY  Beauty House,128.8973373,경남 김해시 김해대로2471번길 8,월~토 오전10~오후8시,,99,매주 일요일 ,50934,6ad39d97f4a246598a601b0a6092c94b.jpg,O · J Y Beauty House,1,,19,"커트 무료 , 커트제외전시술50%",35.22870084,결식아동,아이 본인만,"커트 무료 , 커트제외전시술50%"
경남,99,1,120호,128.8662599,경남 김해시 내외로77번길 20,10:30~20:00,,99,일요일,50948,d446777024574092b64c19eb9c32706f.jpg,아담,1,,322,헤어컷,35.2364477,결식아동,아이 본인만,헤어컷
경남,1,1,1층 통큰두마리찜닭,128.8554618,경남 김해시 외동 690-14,12시부터21시,,1,매주일요일,50894,99e1a6326a0841168cffaf2839304a65.jpeg,통큰두마리찜닭,2,,417,,35.2354424,결식아동,동반 1인,
경남,1,1,1층,128.8221296,경남 김해시 율하2로236번길 38,11:00~21:00,,1,"20:00라스트오더, 월요일 휴무",51016,5a99d36fef3445f1a8d96ae88b2d02c5.jpeg,데이지,2,,150,,35.17638431,결식아동,동반 1인,
경남,,"01,02",1층 다가치통닭,128.824649,경남 김해시 율하6로 52,오후 3시부터 자정까지,,1,매주 월요일,51020,43ea39a54d074577b1184c2e7c1f6fc5.jpg,다가치통닭,2,,639,,35.17174663,"결식아동,독거노인",동반 1인,
경남,99,1,남서쪽 끝지점에서 두번째,128.8305094,경남 김해시 주촌면 골든루트로 74,07:00~20:00,,1,"주말,공휴일",50969,205b3d75ea524aa9b82672e6a5799117.png,두꺼비토스트,1,,1046,모든 토스트,35.21300872,결식아동,아이 본인만,모든 토스트
경남,99,1,세원빌딩 1층 가마치통닭 ,128.7293339,경남 김해시 진영읍 김해대로361번길 13,"평일:4시ㅡ새벽1시, 주말ㆍ공휴일:1시ㅡ새벽1시",,1,없음,50862,NULL,가마치통닭진영점,2,,845,통닭  1ㅡ2마리 +음료,35.30805074,결식아동,동반 1인,통닭  1ㅡ2마리 +음료
경남,99,1,1층 헤어담다,128.8681068,경남 김해시 해반천로144번길 9,Am10~pm8시까지,,3,화요일,50901,a673f41be80d490db8b6fb0c337cce82.jpeg,헤어담다,99,시술시50%할인,1044,컷트 ,35.26122702,결식아동,시술시50%할인,컷트 
경남,99,1,밀성돼지국밥 ,128.7451548,경남 밀양시 내이2길 19,08:00~21:00,,1,14:30~16:30,50423,7e772f525fa14b3295348e0ce16d0cc8.jpg,밀성돼지국밥,2,,569,모든국밥,35.49768474,결식아동,동반 1인,모든국밥
경남,1,1,2층,129.0376278,경남 양산시 남부동 314,평일12시~9시 주말11시30분~9시,,1,매주월요일,50622,NULL,비치스테이크,1,,192,,35.34143014,결식아동,아이 본인만,
경남,99,"01,02",후문 상가동 2층  햇살문화스쿨,129.1526749,경남 양산시 덕계11길 12,am 11~ pm7,,2,매주 일요일,50553,24801a280e3f46d6b11203e9a7aff84a.jpg,햇살문화스쿨 ,2,,777,원데이클래스 패키지,35.37721082,"결식아동,독거노인",동반 1인,원데이클래스 패키지
경남,1,1,1층,129.0244522,경남 양산시 동면 금오11길 8,17:00 - 02:00,,1,,50639,ef8367f70e8c4b4a9661d0f3628d2b85.gif,바보스 석산점,1,,485,,35.31512942,결식아동,아이 본인만,
경남,2,2,102호,129.0229219,경남 양산시 동면 금오12길 30-17,10:30~6:30,,99,"매주수요일,2.4째 일요일 정기휴무",50639,6e00c8ebb21b423ca9efad649ed92890.jpg,돼지작업실 ,99,급식카드소지자 1카드1제품 50%,913,,35.31488902,독거노인,급식카드소지자 1카드1제품 50%,
경남,2,"01,02,99",인정에코타운207호크리틴트,129.002526,경남 양산시 물금읍 백호로 76,오전10~6,결식아동.소방관님,3,매주목요일,50613,5f854fdebe284d609e18740c5b3062bd.jpg,크리틴트미용실,1,,435,,35.31743773,"결식아동,독거노인,결식아동.소방관님",아이 본인만,
경남,1,"01,02",1층 도쿄쉐프,129.0005198,경남 양산시 물금읍 서남1길 3,09시~23시 까지,,1,매주 화요일,50599,dad14162bde84c4282f2a629d678c421.jpg,도쿄쉐프,1,,316,,35.32625501,"결식아동,독거노인",아이 본인만,
경남,1,1,메트로프라자 305호,129.0083894,경남 양산시 물금읍 야리2길 31,10:00-21:30,,1,연중무휴,50653,28c69897915a40e88f1b3ca010b1f0f0.jpeg,고카츠,2,,457,,35.30995262,결식아동,동반 1인,
경남,2,1,태경수산,129.0423591,경남 양산시 북정동 886-6,16~23시,,99,명절제외 연중무휴,50572,NULL,태경수산,2,,708,,35.35923042,결식아동,동반 1인,
경남,99,1,웅상센텀프라자 2층,129.1683825,경남 양산시 삼호1길 52,오전 11시 ~ 오후 10시30분,,1,없음,50529,NULL,미스터피자웅상점,1,,235,피자샌드,35.41449865,결식아동,아이 본인만,피자샌드
경남,1,1,2층,128.0955056,경남 진주시 동진로 40,오전11시~오후10시30분,,1,없음,52727,7278615e5a1b4f9da36b74dd7303526a.jpg,피자마루과기대점,99,동반4인,574,,35.17880908,결식아동,동반4인,
경남,1,1,C3 상가동 1층 1019호,128.1448834,경남 진주시 에나로175번길 12,10:30 ~ 19:00,,1,일/월 휴무,52855,0a5a593cf64b4548bc318f09c3bf58de.jpg,에나로 밀,1,,558,,35.17378577,결식아동,아이 본인만,
경남,99,1,1층,128.1150612,경남 진주시 초전북로61번길 6-13,16:00~22:00,,1,매주월요일,52731,116da798e4164b7c837ae6f8bc5f41b1.jpg,해금강회센터 ,99,결식아동가족 (포장가능 ),367,"모듬회,물회,회덮밥,매운탕",35.2090912,결식아동,결식아동가족 (포장가능 ),"모듬회,물회,회덮밥,매운탕"
경남,99,1,진주펄아쿠아,128.0614267,경남 진주시 평거로5번길 30,오전11시오픈오후8시마감,,99,연중무휴,52701,3b7f1c55a6c84161b5145e0281ebfcf8.jpeg,진주펄아쿠아,1,,334,열대어. 열대어용품. 사료,35.17374924,결식아동,아이 본인만,열대어. 열대어용품. 사료
경남,1,1,1층103호 싸움의고수,128.5591229,경남 창원시 마산합포구 월영동1길 17,오전10시~오후10시,,1,없음,51751,0e0d73d4a9054b7cabb30190afa7f83f.jpg,싸움의고수경남대점,1,,220,,35.17960431,결식아동,아이 본인만,
경남,1,"01,99",상하이빌딩 2층 아인즈헤어,128.6823627,경남 창원시 성산구 단정로 18,10:00-9:00,기초수급가족,3,매주월요일 4주차는일월휴무,51503,7d064d17ab714e2f8230bb82c27c5e4d.jpeg,아인즈헤어,1,,691,,35.22022704,"결식아동,기초수급가족",아이 본인만,
경남,99,1,101호,128.7113623,경남 창원시 성산구 삼정자로51번길 7,오전 11시~ 새벽1시,,1,일요일,51473,0d37be30e70143928ffbc4dd4621e382.jpeg,호야,1,,170,돈카츠정식,35.19879842,결식아동,아이 본인만,돈카츠정식
경남,1,1,메종드테라스 139호 투고샐러드,128.6817807,경남 창원시 성산구 상남로 107,매일 10:00~21:00,,1,브레이크타임 15:30~16:30,51494,25cace0acdd9473bb2e1a7a6535f91c5.jpeg,투고샐러드 창원상남점,1,,853,,35.22311174,결식아동,아이 본인만,
경남,99,,버거인뉴욕,128.6801489,경남 창원시 성산구 외동반림로248번길 5,10:30 - 21:00,,1,없음,51428,NULL,버거인뉴욕,1,,20,뉴욕버거세트,35.23901134,Nan,아이 본인만,뉴욕버거세트
경남,99,"01,99",101호 ,128.6790836,경남 창원시 성산구 중앙대로 78,오전11:00-2:30/ 오후 17:00-20:30,죄송하지만 학생들에게만 제공리고싶습다,99,휴무없음 갑작스런휴무시 인스타공지,51504,2b8012fbeb21478eb31d0a741fcd94db.jpeg,온센텐동창원점,99,힘든 학생들 에게 제공하고싶습니다,997,온센텐동,35.22148725,"결식아동,죄송하지만 학생들에게만 제공리고싶습다",힘든 학생들 에게 제공하고싶습니다,온센텐동
경남,2,"01,02",148호 카페두다,128.6848845,경남 창원시 성산구 창원대로 888,07:00~21:00,,1,일요일,51532,NULL,카페 두번째다락방 두다,2,,18,,35.20879388,"결식아동,독거노인",동반 1인,
경남,1,1,상가2동 101호 꾸운닭보쌈,128.5851762,경남 창원시 의창구 북면 감계로 221,오전 10시~ 밤10시,,1,,51112,bea09c1cc12145d88e0153c7b3013f81.jpg,꾸운닭보쌈 감계점,2,,249,,35.30121782,결식아동,동반 1인,
경남,1,1,(감계리)101-1 메가커피,128.5943156,경남 창원시 의창구 북면 감계로 306,9시~9시반,,1,없어요,51112,e973da33e9764f539247c5d15f2e828a.jpg,메가커피,1,,440,,35.30196094,결식아동,아이 본인만,
경남,99,"01,02",1층 총각축산 (kb빌딩),128.6138315,경남 창원시 의창구 팔용동 101-1,09:00 ~ 22:00,,1,연중무휴,51373,a5941dce96424ee4be07bee7fe47b343.jpg,총각축산 팔용점,1,,868,"양념육 전품목, 삼겹살",35.2557171,"결식아동,독거노인",아이 본인만,"양념육 전품목, 삼겹살"
경남,99,1,우마이,128.7024027,경남 창원시 진해구 석동로20번길 21-1,am11:30-pm10:00,,1,준비시간 pm3:00-5:00 / 매주 수요일 휴무,51660,d14fed6a19b44946ad0c43ddbee2bbce.jpeg,우마이,1,,341,야끼유부초밥+우동,35.15224692,결식아동,아이 본인만,야끼유부초밥+우동
경남,1,1,M타워 104호,128.7137281,경남 창원시 진해구 자은동 138-5,11:00~21:00,,1,15:00~16:00,51592,97407cbf189649dbad142262602e8a40.jpg,버거스캔들 진해자은점 ,1,,481,,35.15454504,결식아동,아이 본인만,
경남,99,1,다이노 브루잉 (1층 안채),128.662347,경남 창원시 진해구 중원로86번길 22-2,17:30 ~ 23:00,,1,14:30 ~ 17:30,51679,55b16fb96bea4bc7bc551d35d00d1c3d.png,다이노 브루잉,1,,1015,피자 또는 치킨,35.15144627,결식아동,아이 본인만,피자 또는 치킨
경남,99,,101동 17호,128.4265948,경남 통영시 원문로 11,오후 4시~새벽2시,,1,없음,53042,NULL,마왕족발 통영점,1,,513,우아한싱글세트,34.85675939,Nan,아이 본인만,우아한싱글세트
경남,1,1,김대리 피자,128.4318063,경남 통영시 통영해안로 456-1,11:00~00:00,,1,,53048,f8a29fea318241378300e2361a46edf8.jpg,김대리 피자,1,,594,,34.84914059,결식아동,아이 본인만,
경북,99,1,1층듀얼몬스터 ,128.7387397,경북 경산시 경안로42길 16-1,,,1,,38618,21f2d86e63f9432791d56b0e677e1ee2.jpg,듀얼몬스터,2,,408,파스타,35.82579213,결식아동,동반 1인,파스타
경북,2,1,1층 이백장돈가스,128.7379692,경북 경산시 경청로219길 4,9~21,,1,매주수요일,38651,0c7d00a4f5ca4cbf903d4f79826e766e.jpg,이백장돈가스 경산,1,,543,,35.80329261,결식아동,아이 본인만,
경북,1,1,세경빌딩 1층 뒷편,128.7608836,경북 경산시 박물관로 17,오전11시~저녁10시,,1,오후3시~5시,38583,6b809e27432541d4a9fbeaad5247f22d.jpg,카츠윤 사동점,1,,525,,35.81616708,결식아동,아이 본인만,
경북,1,1,칼국수한그릇 사동점 ,128.7538617,경북 경산시 백양로 109,11시~20시,,1,"평일15시-17시 브레이크타임, 매주수요일휴무",38599,NULL,칼국수한그릇 사동점 ,1,,870,,35.81382915,결식아동,아이 본인만,
경북,1,1,1층 장충족발 ,128.7380324,경북 경산시 백천동 580-6,오후 2시 오후 10시까지,,1,매주 수요일,38651,f8c70c7fa10a4c40ab8bd834df19a572.jpg,장충왕족발 ,1,,726,,35.80233992,결식아동,아이 본인만,
경북,1,"01,02,99",1층 피자꾼,128.7562133,경북 경산시 삼풍로4길 33,11시부터 새벽1시,불우이웃,1,매주월요일,38544,8bb0214d6bff42f1b8aaf0a925458b3d.jpg,피자꾼경산점,3,,728,,35.82010504,"결식아동,독거노인,불우이웃",동반 2인,
경북,1,1,1층 처갓집양념치킨 ,128.7211575,경북 경산시 성암로7길 8,17:00 - 03:00,,1,"매월 1,3,5주 수요일",38671,3774f62d86ae49f3a5ec982278512ff6.jpg,처갓집양념통닭 ,3,,950,,35.82323878,결식아동,동반 2인,
경북,2,1,B동1-1호 상가,128.7488928,경북 경산시 원효로22길 20,9:30-00:00,,1,,38590,763ba53e6f4d422089305727ca1386af.jpg,꿀꿀한닭,2,,734,,35.82095902,결식아동,동반 1인,
경북,99,1,대가온족발,128.825374,경북 경산시 하양읍 대학로298길 22,오전 10시~ 익일 새벽1시,,1,매주월요일휴무,38438,e35a6cc546ee4e3784070b24bfe5aa89.jpg,대가온족발,99,아이와 부모또는 조부모,580,"순살족발,갈비족발 ,보쌈 ,냉면 ",35.912062,결식아동,아이와 부모또는 조부모,"순살족발,갈비족발 ,보쌈 ,냉면 "
경북,1,1,2층,129.2248954,경북 경주시 광중길 24,11시 ~ 21시 30분,,1,매주 화요일,38070,a30062741432498abd90dc04a7b2abcb.jpg,일공공샤브 경주용강점,2,,69,,35.88020687,결식아동,동반 1인,
경북,99,1,1층 화이트 PC방,129.2046427,경북 경주시 원효로 36,24시간,,99,무휴,38157,NULL,화이트 PC방,2,,420,"라면, 밥",35.84213024,결식아동,동반 1인,"라면, 밥"
경북,99,"01,02",썬하우스 2층 참사람태권도장 ,129.1781235,경북 경주시 충효5길 9-19,2시~21시,,2,"토,일 공휴일",38060,5d9fbb64167b43428af4795a8b06121f.jpg,경주 참사람 태권도장,2,,908,수강료,35.84469062,"결식아동,독거노인",동반 1인,수강료
경북,2,1,을찌로국물떡볶이,129.2166136,경북 경주시 황성로16번길 34,오전11~오후23:40,,1,,38087,35edd96bfbef4772b2ac03c80b88673f.jpg,을찌로국물떡볶이황성점,2,,897,,35.8628069,결식아동,동반 1인,
경북,99,1,1층 초원구이,129.2191323,경북 경주시 황성로64번길 18,16시 ~ 24시,,1,,38078,5e362102fb934f00a54a6777dc274bd4.jpg,초원구이,1,,971,"고기류 1인, 된장찌게, 밥",35.86709096,결식아동,아이 본인만,"고기류 1인, 된장찌게, 밥"
경북,1,1,1층 ,128.3356752,경북 구미시 구미중앙로19길 18,12:00 ~ 20:30,,1,매주 월,39225,NULL,카츠텐,1,,185,,36.1287787,결식아동,아이 본인만,
경북,99,"01,99",508호 폴포아카데미,128.4286522,경북 구미시 산동읍 신당2로 57,오전 11시 ~ 오후 10시,미혼모,2,시간표에 따름,39464,dca28fc9653c4baf8cdc00572b1aff96.jpeg,폴포아카데미,1,,778,주 1회 무료 수업 + 입회비,36.15583795,"결식아동,미혼모",아이 본인만,주 1회 무료 수업 + 입회비
경북,1,1,103호 104호,128.4296948,경북 구미시 산동읍 신당리 1407,11:00 ~ 21:00,,1,15:00 ~ 17:00,39464,1b9daf10ad294df4b3697a79583ea82c.jpeg,풍국면산동점,1,,802,,36.1553143,결식아동,아이 본인만,
경북,2,"01,02",,128.3562667,경북 구미시 상모로9길 1,,,99,,39335,NULL,고고아쿠아,2,,365,,36.09003709,"결식아동,독거노인",동반 1인,
경북,99,1,아름다운집 1층 상가,128.3594211,경북 구미시 상사동로28길 4,오전9시- 7시,,99,일요일,39328,e461e1757eb742d4ae8558e4166b63f9.jpg,강스헤어,1,,314,컷트  ,36.10086306,결식아동,아이 본인만,컷트  
경북,99,1,1층,128.3039225,경북 구미시 선산읍 교리북길 22,10:00~20:00,,3,매주 월요일 휴무,39112,10738cffe7ac416e8f5463e316ac0034.jpg,라보떼,1,,308,커트,36.25345379,결식아동,아이 본인만,커트
경북,1,1,1층 한돈참숯꼬기,128.3023478,경북 구미시 선산읍 선산중앙로 101,16:00-23:00,,1,"매월 첫째,셋째주 월요일",39119,1c49dcb928244963818d9b1b5ed1fb82.png,한돈참숯꼬기선산점,1,,900,,36.24315468,결식아동,아이 본인만,
경북,1,1,나동 1층,128.3478988,경북 구미시 송원서로6길 42-7,2-Nov,,1,연중무휴,39232,NULL,심여사천북양념통닭 2호점,2,,52,,36.12306272,결식아동,동반 1인,
경북,99,"01,02",4층 도담언어심리발달센터,128.4215289,경북 구미시 옥계북로 36,09:00~19:30,,2,"토요일 13시~, 일요일",39185,d7ad31f9101941abb7498788b4141188.jpg,도담언어심리발달센터,3,,990,"간식세트, 핫팩",36.13807863,"결식아동,독거노인",동반 2인,"간식세트, 핫팩"
경북,99,"01,99",1층 달비아뜰리에,128.4234332,경북 구미시 옥계신당로7길 16,10시~19시,미혼모 ,3,매주 일요일 휴무,39181,18edc323facd4bec9b13742cb4c58d78.jpg,달비 아뜰리에,1,,459,커트 ,36.14416547,"결식아동,미혼모 ",아이 본인만,커트 
경북,1,1,2층쉐프아이가,128.4205079,경북 구미시 황상동 302,11:30 ~ 22:00,,1,15:30 ~ 16:30,39430,NULL,쉐프아이가,1,,139,,36.10900948,결식아동,아이 본인만,
경북,2,1,소마루식당,128.1254834,경북 김천시 모암동 128-11,9:00-21:00,,1,15:00-17:00,39589,NULL,소마루,1,,1006,,36.12248971,결식아동,아이 본인만,
경북,1,1,"율곡스퀘어lll, 112호 생활맥주",128.1834301,경북 김천시 혁신3로 5,17시~24시,,1,매주 일요일7,39660,NULL,생활맥주김천혁신도시점,2,,160,,36.11795242,결식아동,동반 1인,
경북,1,1,정식품 문경대리점,128.2217738,경북 문경시 산양면 반암2길 3,9시~5시,,1,"토요일,일요일",36937,NULL,정식품 문경대리점,1,,370,,36.61281008,결식아동,아이 본인만,
경북,1,1,찬디미방,128.1557759,경북 상주시 동수로 144,오후3시~7시 30분,,1,공휴일. 토요일. 일요일,37169,05d2378ff8184f48b59dad7719482193.jpg,찬디미방,1,,84,,36.42218036,결식아동,아이 본인만,
경북,2,1,짱만두,128.7325611,경북 안동시 서동문로 188-1,오전10시-밤 9시,,1,매주 화요일,36701,NULL,짱만두 웅부점,2,,631,,36.56578973,결식아동,동반 1인,
경북,99,1,1층.카페 보헤미안,128.7478929,경북 안동시 전거리1길 61,오픈11시.마걈11시,,1,연중무휴,36712,f98ee8ee5afe4e5184b0366d79a9809e.jpg,보헤미안카페 ,1,,155,아동들이 마실 수 있는 건강한 음료,36.55989968,결식아동,아이 본인만,아동들이 마실 수 있는 건강한 음료
경북,99,2,1층 Monet.,128.7278776,경북 안동시 퇴계로 87-1,20-Oct,,3,없음,36696,c7b170026011461f9ffe46bca282af18.png,모네플라워(Monet.),99,미혼모/한부모가정/기초초수급자,932,"꽃다발,꽃바구니,원데이클래스",36.56646897,독거노인,미혼모/한부모가정/기초초수급자,"꽃다발,꽃바구니,원데이클래스"
